,city,country,population,latitude,longitude,city coordinates
0,Encamp,Andorra,11224,42.5333333,1.5833333,"[42.5333333, 1.5833333]"
1,Les Escaldes,Andorra,15854,42.5,1.5333333,"[42.5000000, 1.5333333]"
2,Andorra la Vella,Andorra,20430,42.5,1.5166667,"[42.5000000, 1.5166667]"
3,La Massana,Andorra,7211,42.55,1.5166667,"[42.5500000, 1.5166667]"
4,Canillo,Andorra,3292,42.5666667,1.6,"[42.5666667, 1.6000000]"
5,Sharjah,United Arab Emirates,543942,25.35731,55.403304,"[25.3573100, 55.4033040]"
6,Dubai,United Arab Emirates,1137376,25.258172,55.304717,"[25.2581720, 55.3047170]"
7,Abu Dhabi,United Arab Emirates,603687,24.466667,54.366667,"[24.4666670, 54.3666670]"
8,Asadabad,Afghanistan,48400,34.873113,71.14697,"[34.8731130, 71.1469700]"
9,Asmar,Afghanistan,15708,35.033328,71.358087,"[35.0333280, 71.3580870]"
10,Aybak,Afghanistan,47877,36.26468,68.015512,"[36.2646800, 68.0155120]"
11,Carikar,Afghanistan,53693,35.016585,69.174011,"[35.0165850, 69.1740110]"
12,Ciras,Afghanistan,12778,35.416737,65.982341,"[35.4167370, 65.9823410]"
13,Deh Rawud,Afghanistan,25683,32.624131,65.459659,"[32.6241310, 65.4596590]"
14,Gardez,Afghanistan,103732,33.597439,69.225922,"[33.5974390, 69.2259220]"
15,Khowst,Afghanistan,96246,33.339512,69.92041,"[33.3395120, 69.9204100]"
16,Lar Gerd,Afghanistan,11635,35.489361,66.664088,"[35.4893610, 66.6640880]"
17,Mehtar Lam,Afghanistan,17350,34.671389,70.209444,"[34.6713890, 70.2094440]"
18,Nuristan,Afghanistan,17072,34.95,70.4,"[34.9500000, 70.4000000]"
19,Orgun,Afghanistan,10665,32.901111,69.152798,"[32.9011110, 69.1527980]"
20,Qarqin,Afghanistan,15023,37.404464,66.074375,"[37.4044640, 66.0743750]"
21,Sar-e Pul,Afghanistan,52138,36.215443,65.932487,"[36.2154430, 65.9324870]"
22,Sharan,Afghanistan,7368,33.146667,68.791667,"[33.1466670, 68.7916670]"
23,Shibarghan,Afghanistan,55658,36.667567,65.752904,"[36.6675670, 65.7529040]"
24,Tokzar,Afghanistan,12021,35.948308,66.42132,"[35.9483080, 66.4213200]"
25,Uruzgan,Afghanistan,13400,32.927751,66.632534,"[32.9277510, 66.6325340]"
26,Gardan Diwal,Afghanistan,6815,34.508977,68.260739,"[34.5089770, 68.2607390]"
27,Qunduz,Afghanistan,161943,36.728955,68.857001,"[36.7289550, 68.8570010]"
28,Cah Ab,Afghanistan,23424,37.397734,69.814644,"[37.3977340, 69.8146440]"
29,Rostaq,Afghanistan,25644,37.126035,69.83045,"[37.1260350, 69.8304500]"
30,Taloqan,Afghanistan,64275,36.734133,69.533559,"[36.7341330, 69.5335590]"
31,Qandahar,Afghanistan,391230,31.613323,65.710126,"[31.6133230, 65.7101260]"
32,Dawlatabad,Afghanistan,17674,36.98782,66.82066,"[36.9878200, 66.8206600]"
33,Kholm,Afghanistan,64954,36.697362,67.698255,"[36.6973620, 67.6982550]"
34,Qarchi Gak,Afghanistan,8942,37.039988,66.788912,"[37.0399880, 66.7889120]"
35,Mirabad,Afghanistan,14160,30.436244,61.838304,"[30.4362440, 61.8383040]"
36,Rudbar,Afghanistan,11034,30.15,62.6,"[30.1500000, 62.6000000]"
37,Zaranj,Afghanistan,33894,30.966667,61.883333,"[30.9666670, 61.8833330]"
38,Azrow,Afghanistan,12526,34.173553,69.645728,"[34.1735530, 69.6457280]"
39,Baraki Barak,Afghanistan,22305,33.9675,68.948611,"[33.9675000, 68.9486110]"
40,Acin,Afghanistan,15098,34.082481,70.668152,"[34.0824810, 70.6681520]"
41,Jalalabad,Afghanistan,200389,34.426468,70.45153,"[34.4264680, 70.4515300]"
42,Tagab,Afghanistan,6400,34.855007,69.64917,"[34.8550070, 69.6491700]"
43,Bagrami,Afghanistan,30256,34.493761,69.274274,"[34.4937610, 69.2742740]"
44,Kabul,Afghanistan,3043589,34.516667,69.183333,"[34.5166670, 69.1833330]"
45,Pagman,Afghanistan,49173,34.5875,68.953333,"[34.5875000, 68.9533330]"
46,Herat,Afghanistan,272880,34.348167,62.199673,"[34.3481670, 62.1996730]"
47,Kuhestan,Afghanistan,12087,34.653889,61.197778,"[34.6538890, 61.1977780]"
48,Kusk,Afghanistan,16952,33.29565,61.952206,"[33.2956500, 61.9522060]"
49,Sindand,Afghanistan,29273,33.302944,62.1474,"[33.3029440, 62.1474000]"
50,Tir Pol,Afghanistan,6979,34.594307,61.268951,"[34.5943070, 61.2689510]"
51,Geresk,Afghanistan,43638,31.820894,64.570048,"[31.8208940, 64.5700480]"
52,Sangin,Afghanistan,13579,32.072752,64.835903,"[32.0727520, 64.8359030]"
53,Sahrak,Afghanistan,15967,34.107375,64.305199,"[34.1073750, 64.3051990]"
54,Taywarah,Afghanistan,14398,33.521176,64.421156,"[33.5211760, 64.4211560]"
55,Anar Darreh,Afghanistan,10023,32.758698,61.653969,"[32.7586980, 61.6539690]"
56,Farah,Afghanistan,43574,32.374508,62.116383,"[32.3745080, 62.1163830]"
57,Panjab,Afghanistan,13471,34.387949,67.023273,"[34.3879490, 67.0232730]"
58,Andarab,Afghanistan,27034,35.633484,69.260195,"[35.6334840, 69.2601950]"
59,Baglan,Afghanistan,108481,36.130684,68.708286,"[36.1306840, 68.7082860]"
60,Nahrin,Afghanistan,22389,36.064904,69.13343,"[36.0649040, 69.1334300]"
61,Gazni,Afghanistan,143049,33.550833,68.4225,"[33.5508330, 68.4225000]"
62,Dawlatabad,Afghanistan,13603,36.432589,64.920713,"[36.4325890, 64.9207130]"
63,Eskasem,Afghanistan,12120,36.706932,71.570658,"[36.7069320, 71.5706580]"
64,Jurm,Afghanistan,12121,36.864768,70.834207,"[36.8647680, 70.8342070]"
65,All Saints,Antigua and Barbuda,2526,17.05,-61.8,"[17.0500000, -61.8000000]"
66,Liberta,Antigua and Barbuda,1668,17.0333333,-61.7833333,"[17.0333333, -61.7833333]"
67,Swetes,Antigua and Barbuda,727,17.05,-61.8,"[17.0500000, -61.8000000]"
68,Old Road,Antigua and Barbuda,623,17.0166667,-61.8333333,"[17.0166667, -61.8333333]"
69,Carlisle,Antigua and Barbuda,831,17.1333333,-61.8,"[17.1333333, -61.8000000]"
70,Freetown,Antigua and Barbuda,623,17.05,-61.7,"[17.0500000, -61.7000000]"
71,Parham,Antigua and Barbuda,969,17.0833333,-61.7666667,"[17.0833333, -61.7666667]"
72,Codrington,Antigua and Barbuda,682,17.6333333,-61.8333333,"[17.6333333, -61.8333333]"
73,Bajram Curri,Albania,7967,42.3572222,20.0730556,"[42.3572222, 20.0730556]"
74,Ballsh,Albania,10361,40.5988889,19.7347222,"[40.5988889, 19.7347222]"
75,Berat,Albania,47606,40.7058333,19.9522222,"[40.7058333, 19.9522222]"
76,Bilisht,Albania,7114,40.6275,20.99,"[40.6275000, 20.9900000]"
77,Bulqizë,Albania,11212,41.4916667,20.2219444,"[41.4916667, 20.2219444]"
78,Burrel,Albania,15539,41.6102778,20.0088889,"[41.6102778, 20.0088889]"
79,Cërrik,Albania,14269,41.0316667,19.9758333,"[41.0316667, 19.9758333]"
80,Çorovodë,Albania,14046,40.5041667,20.2272222,"[40.5041667, 20.2272222]"
81,Delvinë,Albania,3916,39.9511111,20.0977778,"[39.9511111, 20.0977778]"
82,Durrës,Albania,122034,41.3230556,19.4413889,"[41.3230556, 19.4413889]"
83,Elbasan,Albania,100903,41.1125,20.0822222,"[41.1125000, 20.0822222]"
84,Ersekë,Albania,7890,40.3377778,20.6788889,"[40.3377778, 20.6788889]"
85,Fier,Albania,59719,40.7238889,19.5561111,"[40.7238889, 19.5561111]"
86,Fierzë,Albania,742,42.2647222,20.0269444,"[42.2647222, 20.0269444]"
87,Fierzë,Albania,742,42.2605556,20.0169444,"[42.2605556, 20.0169444]"
88,Fushë-Arrëz,Albania,2438,42.0622222,20.0166667,"[42.0622222, 20.0166667]"
89,Fushë-Krujë,Albania,10458,41.4783333,19.7177778,"[41.4783333, 19.7177778]"
90,Gjirokastër,Albania,23437,40.0758333,20.1388889,"[40.0758333, 20.1388889]"
91,Gramsh,Albania,11556,40.8697222,20.1844444,"[40.8697222, 20.1844444]"
92,Himarë,Albania,4596,40.1016667,19.7447222,"[40.1016667, 19.7447222]"
93,Kamzë,Albania,11026,41.3816667,19.7602778,"[41.3816667, 19.7602778]"
94,Kavajë,Albania,29354,41.1855556,19.5569444,"[41.1855556, 19.5569444]"
95,Këlcyrë,Albania,2486,40.3130556,20.1894444,"[40.3130556, 20.1894444]"
96,Kërrabë,Albania,1177,41.2155556,19.9713889,"[41.2155556, 19.9713889]"
97,Klos,Albania,683,41.4844444,20.1080556,"[41.4844444, 20.1080556]"
98,Konispol,Albania,1349,39.6588889,20.1813889,"[39.6588889, 20.1813889]"
99,Koplik,Albania,4078,42.2136111,19.4363889,"[42.2136111, 19.4363889]"
100,Korçë,Albania,58259,40.6186111,20.7808333,"[40.6186111, 20.7808333]"
101,Krastë,Albania,1168,41.4225,20.205,"[41.4225000, 20.2050000]"
102,Krujë,Albania,21286,41.5091667,19.7927778,"[41.5091667, 19.7927778]"
103,Kuçovë,Albania,18166,40.8002778,19.9166667,"[40.8002778, 19.9166667]"
104,Kukës,Albania,17972,42.0769444,20.4219444,"[42.0769444, 20.4219444]"
105,Kurbnesh,Albania,1429,41.7797222,20.0836111,"[41.7797222, 20.0836111]"
106,Laç,Albania,24825,41.6355556,19.7130556,"[41.6355556, 19.7130556]"
107,Leskovik,Albania,2655,40.1513889,20.5972222,"[40.1513889, 20.5972222]"
108,Lezhë,Albania,18695,41.7836111,19.6436111,"[41.7836111, 19.6436111]"
109,Libohovë,Albania,3651,40.0311111,20.2630556,"[40.0311111, 20.2630556]"
110,Librazhd,Albania,12691,41.1794444,20.315,"[41.1794444, 20.3150000]"
111,Lushnjë,Albania,41423,40.9419444,19.705,"[40.9419444, 19.7050000]"
112,Maliq,Albania,3735,40.7058333,20.6997222,"[40.7058333, 20.6997222]"
113,Mamurras,Albania,8282,41.5775,19.6922222,"[41.5775000, 19.6922222]"
114,Memaliaj,Albania,4951,40.3458333,19.9791667,"[40.3458333, 19.9791667]"
115,Milot,Albania,2157,41.6802778,19.7244444,"[41.6802778, 19.7244444]"
116,Orikum,Albania,2604,40.3252778,19.4713889,"[40.3252778, 19.4713889]"
117,Patos,Albania,22679,40.6833333,19.6194444,"[40.6833333, 19.6194444]"
118,Peqin,Albania,7513,41.0461111,19.7511111,"[41.0461111, 19.7511111]"
119,Përmet,Albania,10686,40.2336111,20.3516667,"[40.2336111, 20.3516667]"
120,Përrenjas,Albania,4015,41.0730556,20.5488889,"[41.0730556, 20.5488889]"
121,Peshkopi,Albania,15261,41.685,20.4288889,"[41.6850000, 20.4288889]"
122,Pogradec,Albania,25758,40.9025,20.6525,"[40.9025000, 20.6525000]"
123,Poliçan,Albania,10663,40.6122222,20.0980556,"[40.6122222, 20.0980556]"
124,Pukë,Albania,6495,42.0444444,19.8997222,"[42.0444444, 19.8997222]"
125,Roskovec,Albania,6657,40.7375,19.7022222,"[40.7375000, 19.7022222]"
126,Rrëshen,Albania,10064,41.7675,19.8755556,"[41.7675000, 19.8755556]"
127,Rrogozhinë,Albania,5620,41.0763889,19.6652778,"[41.0763889, 19.6652778]"
128,Rubik,Albania,2332,41.7744444,19.7861111,"[41.7744444, 19.7861111]"
129,Sarandë,Albania,15147,39.8755556,20.0052778,"[39.8755556, 20.0052778]"
130,Selenicë,Albania,6912,40.5305556,19.6358333,"[40.5305556, 19.6358333]"
131,Shëngjin,Albania,2698,41.8136111,19.5938889,"[41.8136111, 19.5938889]"
132,Shijak,Albania,14138,41.3455556,19.5672222,"[41.3455556, 19.5672222]"
133,Shkodër,Albania,89102,42.0675,19.5130556,"[42.0675000, 19.5130556]"
134,Tepelenë,Albania,11955,40.2958333,20.0191667,"[40.2958333, 20.0191667]"
135,Tirana,Albania,374801,41.3275,19.8188889,"[41.3275000, 19.8188889]"
136,Ulzë,Albania,600,41.6827778,19.8933333,"[41.6827778, 19.8933333]"
137,Vlorë,Albania,89528,40.4666667,19.4897222,"[40.4666667, 19.4897222]"
138,Vorë,Albania,4973,41.3908333,19.655,"[41.3908333, 19.6550000]"
139,Jrashen,Armenia,1696,40.0547222,44.5133333,"[40.0547222, 44.5133333]"
140,Kanakeravan,Armenia,2950,40.2472222,44.5366667,"[40.2472222, 44.5366667]"
141,Vardadzor,Armenia,2095,40.1916667,45.1875,"[40.1916667, 45.1875000]"
142,Yerevan,Armenia,1093499,40.1811111,44.5136111,"[40.1811111, 44.5136111]"
143,Agarakadzor,Armenia,1195,39.7363889,45.3455556,"[39.7363889, 45.3455556]"
144,Aghavnadzor,Armenia,1925,39.7836111,45.2280556,"[39.7836111, 45.2280556]"
145,Areni,Armenia,1718,39.7208333,45.1838889,"[39.7208333, 45.1838889]"
146,Armash,Armenia,2434,39.7666667,44.8083333,"[39.7666667, 44.8083333]"
147,Gladzor,Armenia,2080,39.7783333,45.3477778,"[39.7783333, 45.3477778]"
148,Jermuk,Armenia,4582,39.8416667,45.6722222,"[39.8416667, 45.6722222]"
149,Malishka,Armenia,4174,39.7369444,45.3875,"[39.7369444, 45.3875000]"
150,Rind,Armenia,1368,39.7597222,45.18,"[39.7597222, 45.1800000]"
151,Shatin,Armenia,1671,39.8333333,45.3016667,"[39.8333333, 45.3016667]"
152,Surenavan,Armenia,2241,39.75,44.8,"[39.7500000, 44.8000000]"
153,Vernashen,Armenia,1162,39.7938889,45.3633333,"[39.7938889, 45.3633333]"
154,Zaritap,Armenia,1323,39.6372222,45.5086111,"[39.6372222, 45.5086111]"
155,Archis,Armenia,1235,41.1641667,44.8725,"[41.1641667, 44.8725000]"
156,Artsvaberd,Armenia,3193,40.8336111,45.4711111,"[40.8336111, 45.4711111]"
157,Aygehovit,Armenia,2888,40.9744444,45.2519444,"[40.9744444, 45.2519444]"
158,Ayrum,Armenia,2174,41.1716667,44.8191667,"[41.1716667, 44.8191667]"
159,Azatamut,Armenia,1850,40.9758333,45.1980556,"[40.9758333, 45.1980556]"
160,Bagratashen,Armenia,3024,41.2458333,44.8211111,"[41.2458333, 44.8211111]"
161,Berdavan,Armenia,3150,41.2027778,45.0033333,"[41.2027778, 45.0033333]"
162,Berd,Armenia,8374,40.8808333,45.3916667,"[40.8808333, 45.3916667]"
163,Dilijan,Armenia,13480,40.7408333,44.8630556,"[40.7408333, 44.8630556]"
164,Getahovit,Armenia,2005,40.8958333,45.1313889,"[40.8958333, 45.1313889]"
165,Gosh,Armenia,994,40.7225,45.0033333,"[40.7225000, 45.0033333]"
166,Haghartsin,Armenia,3370,40.7780556,44.9625,"[40.7780556, 44.9625000]"
167,Ijevan,Armenia,14737,40.8755556,45.1491667,"[40.8755556, 45.1491667]"
168,Khashtarak,Armenia,1728,40.9386111,45.1797222,"[40.9386111, 45.1797222]"
169,Mosesgegh,Armenia,1964,40.9063889,45.4913889,"[40.9063889, 45.4913889]"
170,Navur,Armenia,1227,40.8613889,45.3175,"[40.8613889, 45.3175000]"
171,Noyemberyan,Armenia,5119,41.1725,44.9936111,"[41.1725000, 44.9936111]"
172,Paravakar,Armenia,1637,40.9805556,45.3991667,"[40.9805556, 45.3991667]"
173,Sarigyukh,Armenia,1096,41.0563889,45.1458333,"[41.0563889, 45.1458333]"
174,Voskevan,Armenia,1287,41.1191667,45.0652778,"[41.1191667, 45.0652778]"
175,Agarak,Armenia,1278,41.0105556,44.4675,"[41.0105556, 44.4675000]"
176,Alaverdi,Armenia,13186,41.1305556,44.6519444,"[41.1305556, 44.6519444]"
177,Arevashogh,Armenia,2435,40.8613889,44.2727778,"[40.8613889, 44.2727778]"
178,Ayrum,Armenia,2174,41.195,44.8925,"[41.1950000, 44.8925000]"
179,Bazum,Armenia,1114,40.8680556,44.4455556,"[40.8680556, 44.4455556]"
180,Chochkan,Armenia,1740,41.1861111,44.8313889,"[41.1861111, 44.8313889]"
181,Darpas,Armenia,1785,40.8380556,44.4233333,"[40.8380556, 44.4233333]"
182,Dsegh,Armenia,2484,40.9633333,44.6516667,"[40.9633333, 44.6516667]"
183,Fioletovo,Armenia,1264,40.7247222,44.7138889,"[40.7247222, 44.7138889]"
184,Gogaran,Armenia,1088,40.8955556,44.1991667,"[40.8955556, 44.1991667]"
185,Gyulagarak,Armenia,2109,40.9697222,44.4713889,"[40.9697222, 44.4713889]"
186,Jrashen,Armenia,3078,40.7875,44.1972222,"[40.7875000, 44.1972222]"
187,Lernantsk,Armenia,1192,40.7955556,44.2783333,"[40.7955556, 44.2783333]"
188,Lernapat,Armenia,1710,40.82,44.3972222,"[40.8200000, 44.3972222]"
189,Lernavan,Armenia,1517,40.7883333,44.1844444,"[40.7883333, 44.1844444]"
190,Lorut,Armenia,1101,40.9388889,44.7725,"[40.9388889, 44.7725000]"
191,Margahovit,Armenia,3308,40.7380556,44.6875,"[40.7380556, 44.6875000]"
192,Metsavan,Armenia,4767,41.2016667,44.2288889,"[41.2016667, 44.2288889]"
193,Mets Parni,Armenia,1934,40.8372222,44.1091667,"[40.8372222, 44.1091667]"
194,Norashen,Armenia,1386,41.1880556,44.3272222,"[41.1880556, 44.3272222]"
195,Odzun,Armenia,4524,41.0538889,44.6113889,"[41.0538889, 44.6113889]"
196,Saramech,Armenia,1111,40.7725,44.2191667,"[40.7725000, 44.2191667]"
197,Shahumyan,Armenia,1843,40.7883333,44.5316667,"[40.7883333, 44.5316667]"
198,Shirakamut,Armenia,2008,40.8605556,44.1527778,"[40.8605556, 44.1527778]"
199,Shnogh,Armenia,2872,41.1477778,44.8377778,"[41.1477778, 44.8377778]"
200,Spitak,Armenia,15063,40.7955556,44.2783333,"[40.7955556, 44.2783333]"
201,Tashir,Armenia,7318,41.1244444,44.2819444,"[41.1244444, 44.2819444]"
202,Tsaghkaber,Armenia,1207,40.7986111,44.1072222,"[40.7986111, 44.1072222]"
203,Tumanyan,Armenia,1693,40.9633333,44.6516667,"[40.9633333, 44.6516667]"
204,Urut,Armenia,1102,41.0711111,44.3969444,"[41.0711111, 44.3969444]"
205,Vahagni,Armenia,1184,40.9080556,44.6069444,"[40.9080556, 44.6069444]"
206,Vanadzor,Armenia,101099,40.8127778,44.4883333,"[40.8127778, 44.4883333]"
207,Vardablur,Armenia,1297,40.95,44.4666667,"[40.9500000, 44.4666667]"
208,Yeghegnut,Armenia,1154,40.9041667,44.6325,"[40.9041667, 44.6325000]"
209,Abovyan,Armenia,35677,40.2691667,44.6244444,"[40.2691667, 44.6244444]"
210,Aghavnadzor,Armenia,1252,40.5841667,44.6913889,"[40.5841667, 44.6913889]"
211,Aragyukh,Armenia,999,40.4025,44.5436111,"[40.4025000, 44.5436111]"
212,Aramus,Armenia,3214,40.2511111,44.6630556,"[40.2511111, 44.6630556]"
213,Argel,Armenia,2528,40.3794444,44.5994444,"[40.3794444, 44.5994444]"
214,Arzakan,Armenia,2660,40.4494444,44.6063889,"[40.4494444, 44.6063889]"
215,Arzni,Armenia,2244,40.2963889,44.5958333,"[40.2963889, 44.5958333]"
216,Balahovit,Armenia,2982,40.2536111,44.6038889,"[40.2536111, 44.6038889]"
217,Buzhakan,Armenia,1678,40.4552778,44.5205556,"[40.4552778, 44.5205556]"
218,Byureghavan,Armenia,6972,40.3147222,44.5936111,"[40.3147222, 44.5936111]"
219,Dzoraghbyur,Armenia,2011,40.205,44.6430556,"[40.2050000, 44.6430556]"
220,Fantan,Armenia,1019,40.3941667,44.685,"[40.3941667, 44.6850000]"
221,Garni,Armenia,6827,40.1194444,44.7230556,"[40.1194444, 44.7230556]"
222,Hrazdan,Armenia,40796,40.5016667,44.7547222,"[40.5016667, 44.7547222]"
223,Kamaris,Armenia,2064,40.2358333,44.6938889,"[40.2358333, 44.6938889]"
224,Kaputan,Armenia,1252,40.3244444,44.6938889,"[40.3244444, 44.6938889]"
225,Lernanist,Armenia,2511,40.4675,44.7980556,"[40.4675000, 44.7980556]"
226,Mayakovski,Armenia,1727,40.2522222,44.6383333,"[40.2522222, 44.6383333]"
227,Meghradzor,Armenia,2659,40.6147222,44.6522222,"[40.6147222, 44.6522222]"
228,Mrgashen,Armenia,1623,40.285,44.5422222,"[40.2850000, 44.5422222]"
229,Nor Geghi,Armenia,4896,40.3211111,44.5797222,"[40.3211111, 44.5797222]"
230,Nor Gyukh,Armenia,1462,40.2666667,44.6563889,"[40.2666667, 44.6563889]"
231,Nor Yerznka,Armenia,1459,40.3133333,44.4047222,"[40.3133333, 44.4047222]"
232,Proshyan,Armenia,4333,40.2480556,44.415,"[40.2480556, 44.4150000]"
233,Ptghni,Armenia,1231,40.2566667,44.585,"[40.2566667, 44.5850000]"
234,Solak,Armenia,2295,40.4636111,44.7086111,"[40.4636111, 44.7086111]"
235,Tsaghkadzor,Armenia,1408,40.5386111,44.7113889,"[40.5386111, 44.7113889]"
236,Yeghvard,Armenia,10705,40.3216667,44.4813889,"[40.3216667, 44.4813889]"
237,Zar,Armenia,1340,40.2611111,44.7361111,"[40.2611111, 44.7361111]"
238,Zoravan,Armenia,1167,40.3569444,44.5230556,"[40.3569444, 44.5230556]"
239,Aknalich,Armenia,2654,40.1430556,44.1483333,"[40.1430556, 44.1483333]"
240,Aknashen,Armenia,1362,40.0958333,44.2861111,"[40.0958333, 44.2861111]"
241,Apaga,Armenia,1634,40.0961111,44.2511111,"[40.0961111, 44.2511111]"
242,Aragats,Armenia,5092,40.2183333,44.2327778,"[40.2183333, 44.2327778]"
243,Arazap,Armenia,1373,40.0427778,44.1458333,"[40.0427778, 44.1458333]"
244,Arevashat,Armenia,1403,40.1416667,44.3708333,"[40.1416667, 44.3708333]"
245,Arevik,Armenia,2455,40.1005556,44.0969444,"[40.1005556, 44.0969444]"
246,Argavand,Armenia,2047,40.0608333,44.0952778,"[40.0608333, 44.0952778]"
247,Armavir,Armenia,2752,40.0897222,44.0483333,"[40.0897222, 44.0483333]"
248,Arshaluys,Armenia,3808,40.1688889,44.2141667,"[40.1688889, 44.2141667]"
249,Artimet,Armenia,1501,40.1513889,44.2663889,"[40.1513889, 44.2663889]"
250,Aygek,Armenia,1095,40.1886111,44.3833333,"[40.1886111, 44.3833333]"
251,Aygeshat,Armenia,1606,40.0666667,44.0666667,"[40.0666667, 44.0666667]"
252,Azatavan,Armenia,2886,40.1333333,44.0666667,"[40.1333333, 44.0666667]"
253,Baghramyan,Armenia,1690,40.1908333,43.8494444,"[40.1908333, 43.8494444]"
254,Bambakashat,Armenia,3089,40.1144444,44.0122222,"[40.1144444, 44.0122222]"
255,Dalarik,Armenia,3080,40.2183333,43.8602778,"[40.2183333, 43.8602778]"
256,Getashen,Armenia,2114,40.0433333,43.9447222,"[40.0433333, 43.9447222]"
257,Griboyedov,Armenia,1879,40.1130556,44.2716667,"[40.1130556, 44.2716667]"
258,Hayanist,Armenia,2031,40.1197222,44.3775,"[40.1197222, 44.3775000]"
259,Haykashen,Armenia,1140,40.0727778,44.3069444,"[40.0727778, 44.3069444]"
260,Hoktember,Armenia,5348,40.1361111,44.0138889,"[40.1361111, 44.0138889]"
261,Janfida,Armenia,2986,40.0455556,44.0208333,"[40.0455556, 44.0208333]"
262,Lenughi,Armenia,1499,40.1238889,43.9652778,"[40.1238889, 43.9652778]"
263,Margara,Armenia,1360,40.0336111,44.1738889,"[40.0336111, 44.1738889]"
264,Merdzavan,Armenia,2702,40.1816667,44.3991667,"[40.1816667, 44.3991667]"
265,Metsamor,Armenia,8789,40.0713889,44.2891667,"[40.0713889, 44.2891667]"
266,Mrgashat,Armenia,4961,40.1297222,44.0705556,"[40.1297222, 44.0705556]"
267,Musaler,Armenia,2323,40.1544444,44.3777778,"[40.1544444, 44.3777778]"
268,Myasnikyan,Armenia,3458,40.1775,43.9063889,"[40.1775000, 43.9063889]"
269,Nalbandyan,Armenia,4019,40.0677778,43.9855556,"[40.0677778, 43.9855556]"
270,Nor Armavir,Armenia,1597,40.0866667,43.99,"[40.0866667, 43.9900000]"
271,Pshatavan,Armenia,2159,40.0405556,44.0675,"[40.0405556, 44.0675000]"
272,Samaghar,Armenia,2343,40.1852778,44.2422222,"[40.1852778, 44.2422222]"
273,Shenavan,Armenia,1757,40.05,43.9333333,"[40.0500000, 43.9333333]"
274,Sovetakan,Armenia,1613,40.1133333,44.0552778,"[40.1133333, 44.0552778]"
275,Tandzut,Armenia,1816,40.0772222,44.0886111,"[40.0772222, 44.0886111]"
276,Taronik,Armenia,1874,40.1330556,44.1991667,"[40.1330556, 44.1991667]"
277,Tsiatsan,Armenia,1050,40.1869444,44.2666667,"[40.1869444, 44.2666667]"
278,Vagharshapat,Armenia,49514,40.1727778,44.2925,"[40.1727778, 44.2925000]"
279,Voskehat,Armenia,2181,40.1413889,44.3291667,"[40.1413889, 44.3291667]"
280,Yeghegnut,Armenia,1746,40.0902778,44.1625,"[40.0902778, 44.1625000]"
281,Yeraskhahun,Armenia,1346,40.0722222,44.2158333,"[40.0722222, 44.2158333]"
282,Zhdanov,Armenia,1512,40.1616667,44.0883333,"[40.1616667, 44.0883333]"
283,Agarak,Armenia,4707,39.2038889,46.5472222,"[39.2038889, 46.5472222]"
284,Aygedzor,Armenia,2535,39.4627778,46.4152778,"[39.4627778, 46.4152778]"
285,Brnakot,Armenia,1912,39.4969444,45.9730556,"[39.4969444, 45.9730556]"
286,Brun,Armenia,1028,39.5338889,46.3030556,"[39.5338889, 46.3030556]"
287,Goris,Armenia,20379,39.5077778,46.3386111,"[39.5077778, 46.3386111]"
288,Kapan,Armenia,33161,39.2011111,46.415,"[39.2011111, 46.4150000]"
289,Khndzoresk,Armenia,1940,39.5122222,46.4336111,"[39.5122222, 46.4336111]"
290,Meghri,Armenia,4540,38.9022222,46.2383333,"[38.9022222, 46.2383333]"
291,Shaghat,Armenia,1011,39.5616667,45.9122222,"[39.5616667, 45.9122222]"
292,Shinuhayr,Armenia,2206,39.4341667,46.3155556,"[39.4341667, 46.3155556]"
293,Sisian,Armenia,15208,39.4627778,45.9730556,"[39.4627778, 45.9730556]"
294,Tegh,Armenia,2120,39.5547222,46.4758333,"[39.5547222, 46.4758333]"
295,Verishen,Armenia,2114,39.5358333,46.3119444,"[39.5358333, 46.3119444]"
296,Akhuryan,Armenia,7672,40.7813889,43.8963889,"[40.7813889, 43.8963889]"
297,Amasia,Armenia,1675,40.9466667,43.7813889,"[40.9466667, 43.7813889]"
298,Anushavan,Armenia,1532,40.6419444,43.9822222,"[40.6419444, 43.9822222]"
299,Arapi,Armenia,1738,40.7797222,43.8005556,"[40.7797222, 43.8005556]"
300,Arevik,Armenia,1522,40.7361111,43.8927778,"[40.7361111, 43.8927778]"
301,Arevshat,Armenia,1623,40.6486111,44.0444444,"[40.6486111, 44.0444444]"
302,Azatan,Armenia,4448,40.7238889,43.8205556,"[40.7238889, 43.8205556]"
303,Dzitankov,Armenia,1162,40.5155556,43.8133333,"[40.5155556, 43.8133333]"
304,Gyumri,Armenia,148383,40.7894444,43.8475,"[40.7894444, 43.8475000]"
305,Haykavan,Armenia,1201,40.7558333,43.77,"[40.7558333, 43.7700000]"
306,Horom,Armenia,1893,40.6541667,43.8822222,"[40.6541667, 43.8822222]"
307,Kamo,Armenia,1340,40.8280556,43.9483333,"[40.8280556, 43.9483333]"
308,Lernakert,Armenia,1306,40.5669444,43.9361111,"[40.5669444, 43.9361111]"
309,Maisyan,Armenia,1521,40.8530556,43.8294444,"[40.8530556, 43.8294444]"
310,Maralik,Armenia,4959,40.5722222,43.8669444,"[40.5722222, 43.8669444]"
311,Marmashen,Armenia,1644,40.8375,43.7719444,"[40.8375000, 43.7719444]"
312,Meghrashen,Armenia,1107,40.6758333,43.9486111,"[40.6758333, 43.9486111]"
313,Musayelyan,Armenia,1499,40.7652778,43.9908333,"[40.7652778, 43.9908333]"
314,Pemzashen,Armenia,2436,40.5933333,43.94,"[40.5933333, 43.9400000]"
315,Pokr Mantash,Armenia,1838,40.65,44.05,"[40.6500000, 44.0500000]"
316,Saratak,Armenia,1115,40.67,43.8663889,"[40.6700000, 43.8663889]"
317,Shirak,Armenia,1007,40.8480556,43.9213889,"[40.8480556, 43.9213889]"
318,Spandaryan,Armenia,1226,40.665,44.0188889,"[40.6650000, 44.0188889]"
319,Voskehask,Armenia,1803,40.7383333,43.7758333,"[40.7383333, 43.7758333]"
320,Yerazgavors,Armenia,1285,40.7,43.75,"[40.7000000, 43.7500000]"
321,Artsvanist,Armenia,2819,40.1544444,45.5022222,"[40.1544444, 45.5022222]"
322,Astghadzor,Armenia,3520,40.1238889,45.3566667,"[40.1238889, 45.3566667]"
323,Aygut,Armenia,997,40.6841667,45.1730556,"[40.6841667, 45.1730556]"
324,Chambarak,Armenia,6153,40.5952778,45.3475,"[40.5952778, 45.3475000]"
325,Ddmashen,Armenia,2157,40.5719444,44.8122222,"[40.5719444, 44.8122222]"
326,Drakhtik,Armenia,1016,40.5688889,45.2319444,"[40.5688889, 45.2319444]"
327,Dzoragyukh,Armenia,3570,40.1752778,45.175,"[40.1752778, 45.1750000]"
328,Gagarin,Armenia,1305,40.5369444,44.8577778,"[40.5369444, 44.8577778]"
329,Gandzak,Armenia,3841,40.3147222,45.1113889,"[40.3147222, 45.1113889]"
330,Gavar,Armenia,21681,40.3588889,45.1266667,"[40.3588889, 45.1266667]"
331,Geghamasar,Armenia,1060,40.3116667,45.68,"[40.3116667, 45.6800000]"
332,Geghamavan,Armenia,1597,40.5619444,44.8827778,"[40.5619444, 44.8827778]"
333,Karchaghbyur,Armenia,2274,40.1638889,45.5722222,"[40.1638889, 45.5722222]"
334,Lanjaghbyur,Armenia,2097,40.2730556,45.1444444,"[40.2730556, 45.1444444]"
335,Lchashen,Armenia,4182,40.5202778,44.9308333,"[40.5202778, 44.9308333]"
336,Madina,Armenia,1024,40.0802778,45.2511111,"[40.0802778, 45.2511111]"
337,Martuni,Armenia,11037,40.1447222,45.3063889,"[40.1447222, 45.3063889]"
338,Mets Masrik,Armenia,2570,40.2186111,45.7694444,"[40.2186111, 45.7694444]"
339,Noratus,Armenia,5426,40.3822222,45.1783333,"[40.3822222, 45.1783333]"
340,Sarukhan,Armenia,6173,40.2891667,45.1341667,"[40.2891667, 45.1341667]"
341,Sevan,Armenia,17083,40.555,44.9536111,"[40.5550000, 44.9536111]"
342,Tazagyukh,Armenia,2248,40.1416667,45.1913889,"[40.1416667, 45.1913889]"
343,Tsovagyugh,Armenia,3857,40.6330556,44.9522222,"[40.6330556, 44.9522222]"
344,Tsovak,Armenia,2531,40.1819444,45.635,"[40.1819444, 45.6350000]"
345,Tsovazard,Armenia,1949,40.4769444,45.0375,"[40.4769444, 45.0375000]"
346,Tsovinar,Armenia,3968,40.1608333,45.4538889,"[40.1608333, 45.4538889]"
347,Vaghashen,Armenia,3235,40.1377778,45.3291667,"[40.1377778, 45.3291667]"
348,Vahan,Armenia,1153,40.57,45.3955556,"[40.5700000, 45.3955556]"
349,Vardenik,Armenia,7709,40.135,45.4363889,"[40.1350000, 45.4363889]"
350,Vardenis,Armenia,11382,40.1805556,45.7283333,"[40.1805556, 45.7283333]"
351,Varser,Armenia,1614,40.5561111,44.9111111,"[40.5561111, 44.9111111]"
352,Verin Getashen,Armenia,4173,40.1327778,45.2486111,"[40.1327778, 45.2486111]"
353,Zovaber,Armenia,1470,40.5736111,44.7863889,"[40.5736111, 44.7863889]"
354,Agarak,Armenia,1575,40.3077778,44.2847222,"[40.3077778, 44.2847222]"
355,Aghavnatun,Armenia,2913,40.2336111,44.2513889,"[40.2336111, 44.2513889]"
356,Amberd,Armenia,1267,40.2416667,44.2727778,"[40.2416667, 44.2727778]"
357,Aparan,Armenia,5670,40.5961111,44.3536111,"[40.5961111, 44.3536111]"
358,Aragats,Armenia,2952,40.3330556,43.6580556,"[40.3330556, 43.6580556]"
359,Arteni,Armenia,3086,40.2983333,43.7541667,"[40.2983333, 43.7541667]"
360,Ashnak,Armenia,1131,40.3275,43.9166667,"[40.3275000, 43.9166667]"
361,Ashtarak,Armenia,18779,40.3016667,44.3591667,"[40.3016667, 44.3591667]"
362,Aygeshat,Armenia,1358,40.2355556,44.2866667,"[40.2355556, 44.2866667]"
363,Byurakan,Armenia,3902,40.3413889,44.2736111,"[40.3413889, 44.2736111]"
364,Doghs,Armenia,1186,40.2227778,44.2716667,"[40.2227778, 44.2716667]"
365,Hnaberd,Armenia,1817,40.6427778,44.1444444,"[40.6427778, 44.1444444]"
366,Karbi,Armenia,3521,40.3338889,44.3777778,"[40.3338889, 44.3777778]"
367,Kasakh,Armenia,4247,40.5333333,44.4166667,"[40.5333333, 44.4166667]"
368,Kosh,Armenia,2581,40.3072222,44.16,"[40.3072222, 44.1600000]"
369,Lukashin,Armenia,2197,40.1758333,44.0186111,"[40.1758333, 44.0186111]"
370,Norakert,Armenia,2485,40.1922222,44.3466667,"[40.1922222, 44.3466667]"
371,Oshakan,Armenia,4768,40.2705556,44.2691667,"[40.2705556, 44.2691667]"
372,Sasunik,Armenia,1959,40.2472222,44.3380556,"[40.2472222, 44.3380556]"
373,Shenavan,Armenia,1587,40.4861111,44.3825,"[40.4861111, 44.3825000]"
374,Talin,Armenia,4945,40.3369444,43.8588889,"[40.3369444, 43.8588889]"
375,Tsaghkahovit,Armenia,1551,40.6361111,44.2230556,"[40.6361111, 44.2230556]"
376,Ushi,Armenia,1276,40.3536111,44.3686111,"[40.3536111, 44.3686111]"
377,Voskevaz,Armenia,3789,40.2797222,44.295,"[40.2797222, 44.2950000]"
378,Zovuni,Armenia,4484,40.5108333,44.4288889,"[40.5108333, 44.4288889]"
379,Abovyan,Armenia,1379,40.0488889,44.5475,"[40.0488889, 44.5475000]"
380,Ararat,Armenia,6554,39.8094444,44.7144444,"[39.8094444, 44.7144444]"
381,Arevabuyr,Armenia,1041,40.0361111,44.4688889,"[40.0361111, 44.4688889]"
382,Arevshat,Armenia,2089,40.0391667,44.5416667,"[40.0391667, 44.5416667]"
383,Argavand,Armenia,1703,40.1580556,44.44,"[40.1580556, 44.4400000]"
384,Artashat,Armenia,20562,39.9538889,44.5505556,"[39.9538889, 44.5505556]"
385,Avshar,Armenia,4215,39.8405556,44.6836111,"[39.8405556, 44.6836111]"
386,Aygavan,Armenia,3758,39.8647222,44.6702778,"[39.8647222, 44.6702778]"
387,Aygepat,Armenia,1349,39.95,44.6,"[39.9500000, 44.6000000]"
388,Aygestan,Armenia,2431,40.0030556,44.5575,"[40.0030556, 44.5575000]"
389,Aygezard,Armenia,3192,39.9458333,44.6088889,"[39.9458333, 44.6088889]"
390,Azatavan,Armenia,2886,39.9833333,44.5,"[39.9833333, 44.5000000]"
391,Bardzrashen,Armenia,1273,40.0852778,44.5786111,"[40.0852778, 44.5786111]"
392,Byuravan,Armenia,1228,40.0161111,44.5186111,"[40.0161111, 44.5186111]"
393,Dalar,Armenia,2504,39.9669444,44.5363889,"[39.9669444, 44.5363889]"
394,Darakert,Armenia,2325,40.1058333,44.4138889,"[40.1058333, 44.4138889]"
395,Dashtavan,Armenia,1762,40.1016667,44.3905556,"[40.1016667, 44.3905556]"
396,Dimitrov,Armenia,1212,40.0080556,44.4880556,"[40.0080556, 44.4880556]"
397,Dvin,Armenia,2795,40.02,44.5852778,"[40.0200000, 44.5852778]"
398,Gay,Armenia,3309,40.0838889,44.3055556,"[40.0838889, 44.3055556]"
399,Geghanist,Armenia,2409,40.1497222,44.4344444,"[40.1497222, 44.4344444]"
400,Getazat,Armenia,1947,40.0380556,44.5638889,"[40.0380556, 44.5638889]"
401,Ghukasavan,Armenia,2113,40.1261111,44.4177778,"[40.1261111, 44.4177778]"
402,Hovtashat,Armenia,3472,40.1019444,44.3427778,"[40.1019444, 44.3427778]"
403,Hovtashen,Armenia,1134,40.0244444,44.45,"[40.0244444, 44.4500000]"
404,Jrahovit,Armenia,1032,40.0452778,44.4736111,"[40.0452778, 44.4736111]"
405,Marmarashen,Armenia,2946,40.0575,44.4711111,"[40.0575000, 44.4711111]"
406,Masis,Armenia,18911,40.0138889,44.4858333,"[40.0138889, 44.4858333]"
407,Mrganush,Armenia,1032,40.0286111,44.5586111,"[40.0286111, 44.5586111]"
408,Mrgavan,Armenia,1713,39.9661111,44.5333333,"[39.9661111, 44.5333333]"
409,Mrgavet,Armenia,2131,40.0283333,44.4827778,"[40.0283333, 44.4827778]"
410,Nizami,Armenia,1060,40.0913889,44.4041667,"[40.0913889, 44.4041667]"
411,Noramarg,Armenia,1811,40.0236111,44.4244444,"[40.0236111, 44.4244444]"
412,Norashen,Armenia,3049,40.0041667,44.5947222,"[40.0041667, 44.5947222]"
413,Noyakert,Armenia,1751,39.8166667,44.6669444,"[39.8166667, 44.6669444]"
414,Nshavan,Armenia,1916,40.0263889,44.5252778,"[40.0263889, 44.5252778]"
415,Ranchpar,Armenia,989,40.0252778,44.3702778,"[40.0252778, 44.3702778]"
416,Shahumyan,Armenia,3905,39.9308333,44.5783333,"[39.9308333, 44.5783333]"
417,Sisavan,Armenia,1793,39.9,44.6666667,"[39.9000000, 44.6666667]"
418,Sis,Armenia,1135,40.0586111,44.3863889,"[40.0586111, 44.3863889]"
419,Vedi,Armenia,12192,39.9105556,44.7277778,"[39.9105556, 44.7277778]"
420,Verin Artashat,Armenia,3931,40.0005556,44.585,"[40.0005556, 44.5850000]"
421,Verin Dvin,Armenia,1853,40.0252778,44.5908333,"[40.0252778, 44.5908333]"
422,Vostan,Armenia,2925,39.9588889,44.5591667,"[39.9588889, 44.5591667]"
423,Yeghegnavan,Armenia,1221,39.8277778,44.6372222,"[39.8277778, 44.6372222]"
424,Zangakatun,Armenia,1130,39.8094444,45.0511111,"[39.8094444, 45.0511111]"
425,Zorak,Armenia,1390,40.0925,44.3919444,"[40.0925000, 44.3919444]"
426,Caxito,Angola,28229,-8.58,13.664167,"[-8.5800000, 13.6641670]"
427,Luanda,Angola,2776125,-8.836804,13.233174,"[-8.8368040, 13.2331740]"
428,Lucapa,Angola,20115,-8.419151,20.744655,"[-8.4191510, 20.7446550]"
429,Cazaje,Angola,4764,-11.067147,20.701483,"[-11.0671470, 20.7014830]"
430,Saurimo,Angola,40498,-9.66078,20.391553,"[-9.6607800, 20.3915530]"
431,Malanje,Angola,87047,-9.544722,16.345278,"[-9.5447220, 16.3452780]"
432,Leúa,Angola,5168,-11.65,20.45,"[-11.6500000, 20.4500000]"
433,Luau,Angola,18465,-10.707273,22.22466,"[-10.7072730, 22.2246600]"
434,Luena,Angola,21115,-11.783333,19.916667,"[-11.7833330, 19.9166670]"
435,Lumeje,Angola,4972,-11.55,20.783333,"[-11.5500000, 20.7833330]"
436,Soyo,Angola,67553,-6.134903,12.368935,"[-6.1349030, 12.3689350]"
437,Uíge,Angola,60008,-7.613282,15.056621,"[-7.6132820, 15.0566210]"
438,Namibe,Angola,80150,-15.196111,12.152222,"[-15.1961110, 12.1522220]"
439,Caconda,Angola,10551,-13.733333,15.066667,"[-13.7333330, 15.0666670]"
440,Caluquembe,Angola,30305,-13.783333,14.683333,"[-13.7833330, 14.6833330]"
441,Lubango,Angola,102541,-14.916667,13.5,"[-14.9166670, 13.5000000]"
442,Kibala,Angola,8915,-10.73366,14.979949,"[-10.7336600, 14.9799490]"
443,Sumbe,Angola,33278,-11.206048,13.843713,"[-11.2060480, 13.8437130]"
444,Camabatela,Angola,12839,-8.18812,15.37495,"[-8.1881200, 15.3749500]"
445,Cabinda,Angola,66020,-5.55,12.2,"[-5.5500000, 12.2000000]"
446,Caála,Angola,21205,-12.8525,15.560556,"[-12.8525000, 15.5605560]"
447,Huambo,Angola,226177,-12.776111,15.739167,"[-12.7761110, 15.7391670]"
448,Longonjo,Angola,24350,-12.906667,15.253333,"[-12.9066670, 15.2533330]"
449,Ondjiva,Angola,10169,-17.066667,15.733333,"[-17.0666670, 15.7333330]"
450,Menongue,Angola,19141,-14.661639,17.688224,"[-14.6616390, 17.6882240]"
451,Benguela,Angola,151235,-12.578333,13.407222,"[-12.5783330, 13.4072220]"
452,Catumbela,Angola,16980,-12.431389,13.547222,"[-12.4313890, 13.5472220]"
453,Lobito,Angola,207957,-12.319722,13.599722,"[-12.3197220, 13.5997220]"
454,Camacupa,Angola,19150,-12.016667,17.483333,"[-12.0166670, 17.4833330]"
455,Catabola,Angola,18858,-12.15,17.283333,"[-12.1500000, 17.2833330]"
456,Chissamba,Angola,7677,-12.166667,17.333333,"[-12.1666670, 17.3333330]"
457,Kuito,Angola,113624,-12.383333,16.933333,"[-12.3833330, 16.9333330]"
458,Tucuman,Argentina,828402,-26.824144,-65.2226,"[-26.8241440, -65.2226000]"
459,Santiago del Estero,Argentina,407636,-27.795112,-64.261489,"[-27.7951120, -64.2614890]"
460,Ushuaia,Argentina,58045,-54.8,-68.3,"[-54.8000000, -68.3000000]"
461,Rafaela,Argentina,84025,-31.250332,-61.486696,"[-31.2503320, -61.4866960]"
462,Reconquista,Argentina,95979,-29.15,-59.65,"[-29.1500000, -59.6500000]"
463,Rosario,Argentina,1218497,-32.946818,-60.639317,"[-32.9468180, -60.6393170]"
464,Santa Fe,Argentina,456044,-31.629484,-60.701036,"[-31.6294840, -60.7010360]"
465,Venado Tuerto,Argentina,71794,-33.745564,-61.968845,"[-33.7455640, -61.9688450]"
466,Villa Constitucion,Argentina,44278,-33.227778,-60.329699,"[-33.2277780, -60.3296990]"
467,Mercedes,Argentina,126559,-33.674359,-65.461405,"[-33.6743590, -65.4614050]"
468,San Luis,Argentina,184869,-33.295012,-66.335627,"[-33.2950120, -66.3356270]"
469,Rio Gallegos,Argentina,93234,-51.622613,-69.218127,"[-51.6226130, -69.2181270]"
470,Salta,Argentina,548288,-24.785896,-65.411664,"[-24.7858960, -65.4116640]"
471,San Ramon de la Nueva Oran,Argentina,84504,-23.13398,-64.324645,"[-23.1339800, -64.3246450]"
472,Tartagal,Argentina,63600,-22.516365,-63.801314,"[-22.5163650, -63.8013140]"
473,San Juan,Argentina,469958,-31.5375,-68.536389,"[-31.5375000, -68.5363890]"
474,La Rioja,Argentina,178497,-29.411048,-66.850668,"[-29.4110480, -66.8506680]"
475,Eldorado,Argentina,62823,-26.404841,-54.624784,"[-26.4048410, -54.6247840]"
476,Obera,Argentina,58939,-27.487059,-55.11994,"[-27.4870590, -55.1199400]"
477,Posadas,Argentina,313438,-27.367077,-55.896078,"[-27.3670770, -55.8960780]"
478,General Roca,Argentina,76066,-39.02797,-67.573711,"[-39.0279700, -67.5737110]"
479,San Carlos de Bariloche,Argentina,110044,-41.140293,-71.301369,"[-41.1402930, -71.3013690]"
480,Viedma,Argentina,76553,-40.813452,-62.996676,"[-40.8134520, -62.9966760]"
481,Neuquen,Argentina,359037,-38.951606,-68.059102,"[-38.9516060, -68.0591020]"
482,Lujan,Argentina,77625,-33.035471,-68.877823,"[-33.0354710, -68.8778230]"
483,Mendoza,Argentina,973047,-32.890845,-68.827171,"[-32.8908450, -68.8271710]"
484,Rivadavia,Argentina,65641,-33.190509,-68.46081,"[-33.1905090, -68.4608100]"
485,San Martin,Argentina,107554,-33.081031,-68.468138,"[-33.0810310, -68.4681380]"
486,San Rafael,Argentina,125033,-34.617717,-68.330066,"[-34.6177170, -68.3300660]"
487,General Pico,Argentina,55900,-35.656622,-63.756815,"[-35.6566220, -63.7568150]"
488,Santa Rosa,Argentina,89478,-36.616667,-64.283333,"[-36.6166670, -64.2833330]"
489,Jujuy,Argentina,277150,-24.194565,-65.297116,"[-24.1945650, -65.2971160]"
490,Libertador General San Martin,Argentina,49273,-23.806443,-64.787574,"[-23.8064430, -64.7875740]"
491,San Pedro,Argentina,43124,-24.231266,-64.866141,"[-24.2312660, -64.8661410]"
492,Formosa,Argentina,248756,-26.177534,-58.178139,"[-26.1775340, -58.1781390]"
493,Corrientes,Argentina,390481,-27.480596,-58.834099,"[-27.4805960, -58.8340990]"
494,Goya,Argentina,70340,-29.14003,-59.262564,"[-29.1400300, -59.2625640]"
495,Mercedes,Argentina,30649,-29.181858,-58.078951,"[-29.1818580, -58.0789510]"
496,San Lorenzo,Argentina,47627,-28.133061,-58.767331,"[-28.1330610, -58.7673310]"
497,Alta Gracia,Argentina,40385,-31.652925,-64.428259,"[-31.6529250, -64.4282590]"
498,Bell Ville,Argentina,35106,-32.625906,-62.68873,"[-32.6259060, -62.6887300]"
499,Cordoba,Argentina,1441007,-31.413496,-64.181052,"[-31.4134960, -64.1810520]"
500,Rio Cuarto,Argentina,174058,-33.130671,-64.349918,"[-33.1306710, -64.3499180]"
501,Rio Tercero,Argentina,53396,-32.173008,-64.114055,"[-32.1730080, -64.1140550]"
502,San Francisco,Argentina,71444,-31.427971,-62.082656,"[-31.4279710, -62.0826560]"
503,Villa Carlos Paz,Argentina,61095,-31.424138,-64.497778,"[-31.4241380, -64.4977780]"
504,Villa Maria,Argentina,92337,-32.407514,-63.240161,"[-32.4075140, -63.2401610]"
505,Presidencia Roque Saenz Pena,Argentina,89584,-26.785221,-60.438761,"[-26.7852210, -60.4387610]"
506,Resistencia,Argentina,406967,-27.46056,-58.983886,"[-27.4605600, -58.9838860]"
507,Concepcion del Uruguay,Argentina,72904,-32.482493,-58.237217,"[-32.4824930, -58.2372170]"
508,Concordia,Argentina,155686,-31.392959,-58.02089,"[-31.3929590, -58.0208900]"
509,Gualeguaychu,Argentina,88218,-33.009375,-58.51722,"[-33.0093750, -58.5172200]"
510,Gualeguay,Argentina,33120,-33.141559,-59.309657,"[-33.1415590, -59.3096570]"
511,Parana,Argentina,299257,-31.731967,-60.523802,"[-31.7319670, -60.5238020]"
512,Victoria,Argentina,25139,-32.619888,-60.153907,"[-32.6198880, -60.1539070]"
513,Comodoro Rivadavia,Argentina,142597,-45.864135,-67.496558,"[-45.8641350, -67.4965580]"
514,Puerto Madryn,Argentina,95547,-42.769201,-65.038513,"[-42.7692010, -65.0385130]"
515,Rawson,Argentina,26341,-43.300158,-65.10228,"[-43.3001580, -65.1022800]"
516,Trelew,Argentina,107883,-43.250075,-65.313295,"[-43.2500750, -65.3132950]"
517,Azul,Argentina,52333,-36.776976,-59.858539,"[-36.7769760, -59.8585390]"
518,Bahia Blanca,Argentina,282950,-38.719595,-62.272432,"[-38.7195950, -62.2724320]"
519,Campana,Argentina,83175,-34.168742,-58.95914,"[-34.1687420, -58.9591400]"
520,Chacabuco,Argentina,34587,-34.641667,-60.473889,"[-34.6416670, -60.4738890]"
521,Chivilcoy,Argentina,52307,-34.895661,-60.016667,"[-34.8956610, -60.0166670]"
522,Dolores,Argentina,25190,-36.313215,-57.679185,"[-36.3132150, -57.6791850]"
523,Junin,Argentina,76369,-34.583816,-60.943318,"[-34.5838160, -60.9433180]"
524,La Plata,Argentina,684318,-34.921454,-57.954533,"[-34.9214540, -57.9545330]"
525,Lincoln,Argentina,24798,-34.866494,-61.530197,"[-34.8664940, -61.5301970]"
526,Lujan,Argentina,74823,-34.570278,-59.105,"[-34.5702780, -59.1050000]"
527,Mar del Plata,Argentina,645771,-38.002278,-57.557539,"[-38.0022780, -57.5575390]"
528,Mercedes,Argentina,49067,-34.651455,-59.430676,"[-34.6514550, -59.4306760]"
529,Necochea,Argentina,84969,-38.547259,-58.736753,"[-38.5472590, -58.7367530]"
530,Nueve de Julio,Argentina,34717,-35.444374,-60.883131,"[-35.4443740, -60.8831310]"
531,Olavarria,Argentina,80005,-36.892715,-60.32254,"[-36.8927150, -60.3225400]"
532,Pergamino,Argentina,86708,-33.889949,-60.573568,"[-33.8899490, -60.5735680]"
533,Punta Alta,Argentina,53117,-38.875875,-62.073589,"[-38.8758750, -62.0735890]"
534,San Nicolas,Argentina,130705,-33.335784,-60.225233,"[-33.3357840, -60.2252330]"
535,San Pedro,Argentina,67514,-33.679127,-59.666635,"[-33.6791270, -59.6666350]"
536,San Vicente,Argentina,84333,-34.982645,-58.376169,"[-34.9826450, -58.3761690]"
537,Tandil,Argentina,100127,-37.321674,-59.133164,"[-37.3216740, -59.1331640]"
538,Tres Arroyos,Argentina,47143,-38.373939,-60.279781,"[-38.3739390, -60.2797810]"
539,Veinticinco de Mayo,Argentina,24668,-35.432303,-60.172707,"[-35.4323030, -60.1727070]"
540,Zarate,Argentina,88222,-34.098142,-59.028585,"[-34.0981420, -59.0285850]"
541,Catamarca,Argentina,213601,-28.469574,-65.785239,"[-28.4695740, -65.7852390]"
542,Vienna,Austria,1569315,48.2,16.366667,"[48.2000000, 16.3666670]"
543,Althofen,Austria,4833,47.15,14.233333,"[47.1500000, 14.2333330]"
544,Bad Aussee,Austria,5210,47.6,13.783333,"[47.6000000, 13.7833330]"
545,Barnbach,Austria,4850,46.983333,16.05,"[46.9833330, 16.0500000]"
546,Bruck an der Mur,Austria,13254,47.416667,15.283333,"[47.4166670, 15.2833330]"
547,Deutschlandsberg,Austria,8049,46.815278,15.222222,"[46.8152780, 15.2222220]"
548,Eisenerz,Austria,5987,47.533333,14.883333,"[47.5333330, 14.8833330]"
549,Feldbach,Austria,4877,46.953056,15.888333,"[46.9530560, 15.8883330]"
550,Fohnsdorf,Austria,8203,47.2,14.683333,"[47.2000000, 14.6833330]"
551,Frohnleiten,Austria,6629,47.266667,15.316667,"[47.2666670, 15.3166670]"
552,Furstenfeld,Austria,5962,47.05,16.083333,"[47.0500000, 16.0833330]"
553,Gleisdorf,Austria,5245,47.1,15.716667,"[47.1000000, 15.7166670]"
554,Gratkorn,Austria,6806,47.133333,15.35,"[47.1333330, 15.3500000]"
555,Graz,Austria,222326,47.066667,15.45,"[47.0666670, 15.4500000]"
556,Hall,Austria,11197,47.6,14.45,"[47.6000000, 14.4500000]"
557,Judenburg,Austria,9992,47.166667,14.666667,"[47.1666670, 14.6666670]"
558,Kapfenberg,Austria,21819,47.433333,15.3,"[47.4333330, 15.3000000]"
559,Kindberg,Austria,5790,47.5,15.45,"[47.5000000, 15.4500000]"
560,Knittelfeld,Austria,12704,47.216667,14.816667,"[47.2166670, 14.8166670]"
561,Koflach,Austria,10447,47.066667,15.083333,"[47.0666670, 15.0833330]"
562,Krieglach,Austria,5236,47.533333,15.55,"[47.5333330, 15.5500000]"
563,Leibnitz,Austria,7029,46.781667,15.541667,"[46.7816670, 15.5416670]"
564,Leoben,Austria,24809,47.383333,15.1,"[47.3833330, 15.1000000]"
565,Liezen,Austria,6903,47.566667,14.233333,"[47.5666670, 14.2333330]"
566,Murzzuschlag,Austria,9410,47.6,15.683333,"[47.6000000, 15.6833330]"
567,Rottenmann,Austria,5561,47.516667,14.35,"[47.5166670, 14.3500000]"
568,Schladming,Austria,4659,47.383333,13.683333,"[47.3833330, 13.6833330]"
569,Trofaiach,Austria,8313,47.416667,15.0,"[47.4166670, 15.0000000]"
570,Voitsberg,Austria,9980,47.033333,15.15,"[47.0333330, 15.1500000]"
571,Weiz,Austria,9128,47.216667,15.616667,"[47.2166670, 15.6166670]"
572,Zeltweg,Austria,7726,47.183333,14.75,"[47.1833330, 14.7500000]"
573,Abtenau,Austria,5829,47.55,13.35,"[47.5500000, 13.3500000]"
574,Anif,Austria,4154,47.75,13.066667,"[47.7500000, 13.0666670]"
575,Bad Hofgastein,Austria,7002,47.166667,13.1,"[47.1666670, 13.1000000]"
576,Bergheim,Austria,5031,47.833333,13.033333,"[47.8333330, 13.0333330]"
577,Bischofshofen,Austria,10145,47.416667,13.216667,"[47.4166670, 13.2166670]"
578,Grodig,Austria,6918,47.733333,13.033333,"[47.7333330, 13.0333330]"
579,Hallein,Austria,18980,47.683333,13.1,"[47.6833330, 13.1000000]"
580,Kuchl,Austria,6668,47.616667,13.15,"[47.6166670, 13.1500000]"
581,Mittersill,Austria,5680,47.266667,12.483333,"[47.2666670, 12.4833330]"
582,Radstadt,Austria,4926,47.383333,13.45,"[47.3833330, 13.4500000]"
583,Saalfelden,Austria,16119,47.416667,12.85,"[47.4166670, 12.8500000]"
584,Salzburg,Austria,145310,47.8,13.033333,"[47.8000000, 13.0333330]"
585,Sankt Johann im Pongau,Austria,10887,47.35,13.2,"[47.3500000, 13.2000000]"
586,Seekirchen,Austria,9865,47.9,13.133333,"[47.9000000, 13.1333330]"
587,Tamsweg,Austria,6126,47.133333,13.8,"[47.1333330, 13.8000000]"
588,Thalgau,Austria,5501,47.833333,13.25,"[47.8333330, 13.2500000]"
589,Zell am See,Austria,10046,47.316667,12.783333,"[47.3166670, 12.7833330]"
590,Amstetten,Austria,22832,48.116667,14.866667,"[48.1166670, 14.8666670]"
591,Baden,Austria,24893,48.016667,16.233333,"[48.0166670, 16.2333330]"
592,Bad Voslau,Austria,11013,47.966667,16.2,"[47.9666670, 16.2000000]"
593,Berndorf,Austria,8796,47.95,16.1,"[47.9500000, 16.1000000]"
594,Bruck an der Leitha,Austria,7339,48.016667,16.766667,"[48.0166670, 16.7666670]"
595,Deutsch-Wagram,Austria,7153,48.299722,16.566667,"[48.2997220, 16.5666670]"
596,Ebreichsdorf,Austria,9509,47.95,16.4,"[47.9500000, 16.4000000]"
597,Ganserndorf,Austria,8588,48.35,16.733333,"[48.3500000, 16.7333330]"
598,Gloggnitz,Austria,6213,47.666667,15.933333,"[47.6666670, 15.9333330]"
599,Gmund,Austria,5811,48.766667,14.983333,"[48.7666670, 14.9833330]"
600,Guntramsdorf,Austria,9071,48.033333,16.3,"[48.0333330, 16.3000000]"
601,Haag,Austria,5164,48.15,15.5,"[48.1500000, 15.5000000]"
602,Hainburg,Austria,5622,48.15,16.933333,"[48.1500000, 16.9333330]"
603,Heidenreichstein,Austria,4472,48.866667,15.116667,"[48.8666670, 15.1166670]"
604,Herzogenburg,Austria,7866,48.266667,15.683333,"[48.2666670, 15.6833330]"
605,Himberg,Austria,5534,48.083333,16.433333,"[48.0833330, 16.4333330]"
606,Hollabrunn,Austria,10966,48.55,16.083333,"[48.5500000, 16.0833330]"
607,Horn,Austria,6485,48.65,15.65,"[48.6500000, 15.6500000]"
608,Klosterneuburg,Austria,24843,48.3,16.316667,"[48.3000000, 16.3166670]"
609,Korneuburg,Austria,11498,48.35,16.333333,"[48.3500000, 16.3333330]"
610,Kottingbrunn,Austria,7184,47.95,16.216667,"[47.9500000, 16.2166670]"
611,Krems,Austria,24092,48.416667,15.6,"[48.4166670, 15.6000000]"
612,Laa,Austria,6084,48.716667,16.383333,"[48.7166670, 16.3833330]"
613,Langenlois,Austria,7081,48.466667,15.666667,"[48.4666670, 15.6666670]"
614,Langenzersdorf,Austria,7733,48.3,16.35,"[48.3000000, 16.3500000]"
615,Maria Enzersdorf,Austria,8085,48.1,16.283333,"[48.1000000, 16.2833330]"
616,Melk,Austria,5272,48.216667,15.316667,"[48.2166670, 15.3166670]"
617,Mistelbach,Austria,10820,48.57,16.576667,"[48.5700000, 16.5766670]"
618,Modling,Austria,20710,48.083333,16.283333,"[48.0833330, 16.2833330]"
619,Neulengbach,Austria,7521,48.2,15.9,"[48.2000000, 15.9000000]"
620,Neunkirchen,Austria,11313,47.716667,16.083333,"[47.7166670, 16.0833330]"
621,Perchtoldsdorf,Austria,14041,48.116667,16.266667,"[48.1166670, 16.2666670]"
622,Pottendorf,Austria,6105,47.9,16.383333,"[47.9000000, 16.3833330]"
623,Poysdorf,Austria,5653,48.666667,16.633333,"[48.6666670, 16.6333330]"
624,Pressbaum,Austria,6083,48.183333,16.083333,"[48.1833330, 16.0833330]"
625,Purgstall,Austria,5247,48.05,15.133333,"[48.0500000, 15.1333330]"
626,Purkersdorf,Austria,8327,48.2,16.166667,"[48.2000000, 16.1666670]"
627,Reichenau,Austria,2673,47.7,15.833333,"[47.7000000, 15.8333330]"
628,Retz,Austria,4139,48.75,15.95,"[48.7500000, 15.9500000]"
629,Sankt Polten,Austria,49000,48.2,15.633333,"[48.2000000, 15.6333330]"
630,Sankt Valentin,Austria,9063,48.166667,14.516667,"[48.1666670, 14.5166670]"
631,Schrems,Austria,5811,48.783333,15.066667,"[48.7833330, 15.0666670]"
632,Schwechat,Austria,15711,48.133333,16.466667,"[48.1333330, 16.4666670]"
633,Sieghartskirchen,Austria,7062,48.25,16.0,"[48.2500000, 16.0000000]"
634,Stockerau,Austria,14831,48.383333,16.216667,"[48.3833330, 16.2166670]"
635,Strasshof,Austria,7637,48.316667,16.666667,"[48.3166670, 16.6666670]"
636,Ternitz,Austria,15153,47.716667,16.033333,"[47.7166670, 16.0333330]"
637,Traiskirchen,Austria,16212,48.016667,16.283333,"[48.0166670, 16.2833330]"
638,Traismauer,Austria,5815,48.35,15.733333,"[48.3500000, 15.7333330]"
639,Tulln,Austria,14201,48.333333,16.05,"[48.3333330, 16.0500000]"
640,Waidhofen,Austria,11774,47.966667,14.766667,"[47.9666670, 14.7666670]"
641,Wiener Neudorf,Austria,8530,48.066667,16.316667,"[48.0666670, 16.3166670]"
642,Wiener Neustadt,Austria,38481,47.8,16.25,"[47.8000000, 16.2500000]"
643,Wilhelmsburg,Austria,6718,48.1,15.6,"[48.1000000, 15.6000000]"
644,Wolkersdorf,Austria,6416,48.383333,16.516667,"[48.3833330, 16.5166670]"
645,Ybbs,Austria,5676,48.166667,15.083333,"[48.1666670, 15.0833330]"
646,Zistersdorf,Austria,5661,48.533333,16.75,"[48.5333330, 16.7500000]"
647,Zwettl,Austria,11718,48.616667,15.166667,"[48.6166670, 15.1666670]"
648,Altach,Austria,6040,47.35,9.65,"[47.3500000, 9.6500000]"
649,Bludenz,Austria,13904,47.149722,9.816667,"[47.1497220, 9.8166670]"
650,Bregenz,Austria,26928,47.5,9.766667,"[47.5000000, 9.7666670]"
651,Dornbirn,Austria,43013,47.416667,9.733056,"[47.4166670, 9.7330560]"
652,Feldkirch,Austria,29446,47.233056,9.6,"[47.2330560, 9.6000000]"
653,Gotzis,Austria,10342,47.333056,9.633056,"[47.3330560, 9.6330560]"
654,Hard,Austria,11766,47.483056,9.683056,"[47.4830560, 9.6830560]"
655,Hochst,Austria,7207,47.466667,9.633056,"[47.4666670, 9.6330560]"
656,Hohenems,Austria,14072,47.366667,9.683056,"[47.3666670, 9.6830560]"
657,Horbranz,Austria,6414,47.55,9.75,"[47.5500000, 9.7500000]"
658,Lauterach,Austria,9212,47.483056,9.733056,"[47.4830560, 9.7330560]"
659,Lochau,Austria,5209,47.533333,9.75,"[47.5333330, 9.7500000]"
660,Lustenau,Austria,20218,47.433056,9.65,"[47.4330560, 9.6500000]"
661,Mittelberg,Austria,4627,47.2,9.65,"[47.2000000, 9.6500000]"
662,Nenzing,Austria,5856,47.183056,9.7,"[47.1830560, 9.7000000]"
663,Nuziders,Austria,4628,47.166667,9.8,"[47.1666670, 9.8000000]"
664,Rankweil,Austria,11455,47.283056,9.65,"[47.2830560, 9.6500000]"
665,Schruns,Austria,3506,47.066667,9.916667,"[47.0666670, 9.9166670]"
666,Wolfurt,Austria,8110,47.466667,9.75,"[47.4666670, 9.7500000]"
667,Absam,Austria,6594,47.3,11.5,"[47.3000000, 11.5000000]"
668,Axams,Austria,5560,47.233333,11.3,"[47.2333330, 11.3000000]"
669,Ebbs,Austria,5088,47.633333,12.216667,"[47.6333330, 12.2166670]"
670,Fugen,Austria,3734,47.35,11.85,"[47.3500000, 11.8500000]"
671,Hopfgarten,Austria,5314,47.45,12.166667,"[47.4500000, 12.1666670]"
672,Imst,Austria,9225,47.233333,10.733333,"[47.2333330, 10.7333330]"
673,Innsbruck,Austria,112467,47.266667,11.4,"[47.2666670, 11.4000000]"
674,Jenbach,Austria,6806,47.4,11.783333,"[47.4000000, 11.7833330]"
675,Kirchbichl,Austria,5115,47.516667,12.083333,"[47.5166670, 12.0833330]"
676,Kitzbuhel,Austria,8818,47.45,12.383333,"[47.4500000, 12.3833330]"
677,Kufstein,Austria,16116,47.583333,12.166667,"[47.5833330, 12.1666670]"
678,Landeck,Austria,7351,47.133333,10.566667,"[47.1333330, 10.5666670]"
679,Lienz,Austria,12270,46.831111,12.759722,"[46.8311110, 12.7597220]"
680,Matrei,Austria,5076,47.0,12.533333,"[47.0000000, 12.5333330]"
681,Reutte,Austria,5851,47.483333,10.716667,"[47.4833330, 10.7166670]"
682,Rum,Austria,8498,47.283333,11.45,"[47.2833330, 11.4500000]"
683,Schwaz,Austria,12507,47.333333,11.7,"[47.3333330, 11.7000000]"
684,Telfs,Austria,14028,47.3,11.066667,"[47.3000000, 11.0666670]"
685,Vols,Austria,6573,47.25,11.333333,"[47.2500000, 11.3333330]"
686,Vomp,Austria,4628,47.333333,11.683333,"[47.3333330, 11.6833330]"
687,Wattens,Austria,7517,47.283333,11.6,"[47.2833330, 11.6000000]"
688,Worgl,Austria,11265,47.483333,12.066667,"[47.4833330, 12.0666670]"
689,Zirl,Austria,6567,47.283333,11.233333,"[47.2833330, 11.2333330]"
690,Altmunster,Austria,9652,47.9,13.75,"[47.9000000, 13.7500000]"
691,Ansfelden,Austria,14936,48.2,14.283333,"[48.2000000, 14.2833330]"
692,Asten,Austria,6517,48.216667,14.4,"[48.2166670, 14.4000000]"
693,Bad Goisern,Austria,7869,47.633333,13.616667,"[47.6333330, 13.6166670]"
694,Bad Hall,Austria,4935,48.033333,14.2,"[48.0333330, 14.2000000]"
695,Bad Ischl,Austria,14267,47.716667,13.616667,"[47.7166670, 13.6166670]"
696,Braunau,Austria,16403,48.266667,13.033333,"[48.2666670, 13.0333330]"
697,Ebensee,Austria,8376,47.8,13.766667,"[47.8000000, 13.7666670]"
698,Engerwitzdorf,Austria,8510,48.35,14.45,"[48.3500000, 14.4500000]"
699,Enns,Austria,10816,48.2,14.466667,"[48.2000000, 14.4666670]"
700,Feldkirchen an der Donau,Austria,5286,48.35,14.05,"[48.3500000, 14.0500000]"
701,Frankenburg,Austria,5162,48.066667,13.483333,"[48.0666670, 13.4833330]"
702,Freistadt,Austria,7574,48.5,14.5,"[48.5000000, 14.5000000]"
703,Gallneukirchen,Austria,6282,48.35,14.416667,"[48.3500000, 14.4166670]"
704,Garsten,Austria,6657,48.016667,14.4,"[48.0166670, 14.4000000]"
705,Gmunden,Austria,13287,47.916667,13.8,"[47.9166670, 13.8000000]"
706,Grieskirchen,Austria,4766,48.233333,13.833333,"[48.2333330, 13.8333330]"
707,Horsching,Austria,5312,48.233333,14.183333,"[48.2333330, 14.1833330]"
708,Kremsmunster,Austria,6626,48.05,14.133333,"[48.0500000, 14.1333330]"
709,Laakirchen,Austria,9569,47.966667,13.816667,"[47.9666670, 13.8166670]"
710,Lenzing,Austria,5044,47.966667,13.616667,"[47.9666670, 13.6166670]"
711,Leonding,Austria,22736,48.266667,14.25,"[48.2666670, 14.2500000]"
712,Linz,Austria,181163,48.3,14.3,"[48.3000000, 14.3000000]"
713,Marchtrenk,Austria,11666,48.183333,14.116667,"[48.1833330, 14.1166670]"
714,Micheldorf,Austria,5902,47.85,14.133333,"[47.8500000, 14.1333330]"
715,Oberndorf,Austria,5738,48.25,13.333333,"[48.2500000, 13.3333330]"
716,Pasching,Austria,6143,48.25,14.2,"[48.2500000, 14.2000000]"
717,Perg,Austria,7644,48.25,14.633333,"[48.2500000, 14.6333330]"
718,Ried,Austria,11511,48.216667,13.5,"[48.2166670, 13.5000000]"
719,Sankt Florian,Austria,5760,48.166667,13.133333,"[48.1666670, 13.1333330]"
720,Sankt Georgen,Austria,4180,47.933333,13.483333,"[47.9333330, 13.4833330]"
721,Scharding,Austria,4919,48.45,13.433333,"[48.4500000, 13.4333330]"
722,Scharnstein,Austria,4631,47.9,13.95,"[47.9000000, 13.9500000]"
723,Seewalchen,Austria,4959,47.95,13.583333,"[47.9500000, 13.5833330]"
724,Sierning,Austria,8722,48.033333,14.3,"[48.0333330, 14.3000000]"
725,Steyregg,Austria,4856,48.283333,14.366667,"[48.2833330, 14.3666670]"
726,Steyr,Austria,39567,48.05,14.416667,"[48.0500000, 14.4166670]"
727,Timelkam,Austria,5855,48.0,13.6,"[48.0000000, 13.6000000]"
728,Traun,Austria,23959,48.216667,14.233333,"[48.2166670, 14.2333330]"
729,Vocklabruck,Austria,11887,48.016667,13.65,"[48.0166670, 13.6500000]"
730,Vocklamarkt,Austria,4869,48.0,13.483333,"[48.0000000, 13.4833330]"
731,Vorchdorf,Austria,7456,48.0,13.916667,"[48.0000000, 13.9166670]"
732,Wels,Austria,57947,48.166667,14.033333,"[48.1666670, 14.0333330]"
733,Eisenstadt,Austria,11767,47.85,16.516667,"[47.8500000, 16.5166670]"
734,Jennersdorf,Austria,4319,46.939167,16.146667,"[46.9391670, 16.1466670]"
735,Mattersburg,Austria,6448,47.733333,16.4,"[47.7333330, 16.4000000]"
736,Neudorfl,Austria,4183,47.783333,16.283333,"[47.7833330, 16.2833330]"
737,Neusiedl am See,Austria,5949,47.933333,16.833333,"[47.9333330, 16.8333330]"
738,Oberwart,Austria,6879,47.283333,16.2,"[47.2833330, 16.2000000]"
739,Pinkafeld,Austria,5257,47.366667,16.116667,"[47.3666670, 16.1166670]"
740,Rust,Austria,1726,47.8,16.666667,"[47.8000000, 16.6666670]"
741,Arnoldstein,Austria,6923,46.546111,13.71,"[46.5461110, 13.7100000]"
742,Bad Sankt Leonhard,Austria,4775,46.962778,14.791667,"[46.9627780, 14.7916670]"
743,Ebenthal,Austria,7809,46.608056,14.364167,"[46.6080560, 14.3641670]"
744,Eberndorf,Austria,6089,46.591389,14.643611,"[46.5913890, 14.6436110]"
745,Feldkirchen,Austria,14440,46.716667,14.1,"[46.7166670, 14.1000000]"
746,Ferlach,Austria,7661,46.526944,14.301944,"[46.5269440, 14.3019440]"
747,Finkenstein,Austria,8406,46.565556,13.865278,"[46.5655560, 13.8652780]"
748,Friesach,Austria,5369,46.955278,14.405833,"[46.9552780, 14.4058330]"
749,Hermagor,Austria,7242,46.627222,13.367222,"[46.6272220, 13.3672220]"
750,Klagenfurt,Austria,90610,46.624722,14.305278,"[46.6247220, 14.3052780]"
751,Moosburg,Austria,4602,46.6575,14.174722,"[46.6575000, 14.1747220]"
752,Paternion,Austria,6301,46.714167,13.636111,"[46.7141670, 13.6361110]"
753,Sankt Andra,Austria,10825,46.766111,14.823611,"[46.7661110, 14.8236110]"
754,Sankt Jakob,Austria,4481,46.547778,14.057222,"[46.5477780, 14.0572220]"
755,Sankt Veit,Austria,13116,46.768056,14.360278,"[46.7680560, 14.3602780]"
756,Seeboden,Austria,6221,46.821944,13.495,"[46.8219440, 13.4950000]"
757,Spittal,Austria,16363,46.8,13.5,"[46.8000000, 13.5000000]"
758,Velden am Worthersee,Austria,8817,46.616111,14.045833,"[46.6161110, 14.0458330]"
759,Villach,Austria,58882,46.610278,13.855833,"[46.6102780, 13.8558330]"
760,Volkermarkt,Austria,11543,46.662222,14.634444,"[46.6622220, 14.6344440]"
761,Wernberg,Austria,5070,46.616667,13.933333,"[46.6166670, 13.9333330]"
762,Wolfsberg,Austria,25610,46.840556,14.844167,"[46.8405560, 14.8441670]"
763,Burnie,Australia,19976,-41.05584,145.903748,"[-41.0558400, 145.9037480]"
764,Devonport,Australia,19318,-41.176949,146.351517,"[-41.1769490, 146.3515170]"
765,Hobart,Australia,204863,-42.883209,147.331665,"[-42.8832090, 147.3316650]"
766,Launceston,Australia,72462,-41.438759,147.134674,"[-41.4387590, 147.1346740]"
767,New Norfolk,Australia,5526,-42.78075,147.059387,"[-42.7807500, 147.0593870]"
768,Ulverstone,Australia,9605,-41.160259,146.182419,"[-41.1602590, 146.1824190]"
769,Adelaide,Australia,1074168,-34.928661,138.598633,"[-34.9286610, 138.5986330]"
770,Flinders,Australia,15000,-32.79924,134.211594,"[-32.7992400, 134.2115940]"
771,Gawler,Australia,16362,-34.602509,138.749023,"[-34.6025090, 138.7490230]"
772,Mount Barker,Australia,8357,-35.066667,138.866667,"[-35.0666670, 138.8666670]"
773,Mount Gambier,Australia,23210,-37.831799,140.77919,"[-37.8317990, 140.7791900]"
774,Murray Bridge,Australia,11356,-35.119862,139.273453,"[-35.1198620, 139.2734530]"
775,Port Augusta,Australia,12133,-32.495972,137.772812,"[-32.4959720, 137.7728120]"
776,Port Lincoln,Australia,11247,-34.72625,135.87442,"[-34.7262500, 135.8744200]"
777,Port Pirie,Australia,12328,-33.191761,138.017456,"[-33.1917610, 138.0174560]"
778,Victor Harbor,Australia,7760,-35.550419,138.621536,"[-35.5504190, 138.6215360]"
779,Whyalla,Australia,19646,-33.032681,137.564835,"[-33.0326810, 137.5648350]"
780,Alice Springs,Australia,26188,-23.697479,133.883621,"[-23.6974790, 133.8836210]"
781,Alyangula,Australia,1289,-13.85413,136.421295,"[-13.8541300, 136.4212950]"
782,Darwin,Australia,93081,-12.45722,130.836639,"[-12.4572200, 130.8366390]"
783,Galiwinku,Australia,1347,-12.02811,135.564865,"[-12.0281100, 135.5648650]"
784,Howard Springs,Australia,3359,-12.49576,131.044464,"[-12.4957600, 131.0444640]"
785,Jabiru,Australia,1892,-12.67558,132.831406,"[-12.6755800, 132.8314060]"
786,Katherine,Australia,10142,-14.46517,132.263474,"[-14.4651700, 132.2634740]"
787,Maningrida,Australia,1391,-12.05111,134.22258,"[-12.0511100, 134.2225800]"
788,Milingimbi,Australia,986,-12.10188,134.919006,"[-12.1018800, 134.9190060]"
789,Nguiu,Australia,1250,-11.75911,130.638153,"[-11.7591100, 130.6381530]"
790,Ngukurr,Australia,947,-14.73081,134.731018,"[-14.7308100, 134.7310180]"
791,Nhulunbuy,Australia,3202,-12.18652,136.782013,"[-12.1865200, 136.7820130]"
792,Palmerston,Australia,31075,-12.45722,130.836639,"[-12.4572200, 130.8366390]"
793,Port Keats,Australia,1351,-14.24029,129.52092,"[-14.2402900, 129.5209200]"
794,Yulara,Australia,3903,-25.245291,130.980545,"[-25.2452910, 130.9805450]"
795,Albany,Australia,23913,-35.003101,117.865952,"[-35.0031010, 117.8659520]"
796,Australind,Australia,6621,-33.279202,115.715042,"[-33.2792020, 115.7150420]"
797,Broome,Australia,13218,-17.955379,122.23922,"[-17.9553790, 122.2392200]"
798,Bunbury,Australia,26370,-33.32711,115.641373,"[-33.3271100, 115.6413730]"
799,Busselton,Australia,12374,-33.652489,115.345497,"[-33.6524890, 115.3454970]"
800,Carnarvon,Australia,7392,-24.88073,113.659401,"[-24.8807300, 113.6594010]"
801,Collie,Australia,6337,-33.362061,116.156174,"[-33.3620610, 116.1561740]"
802,Esperance,Australia,7889,-33.86013,121.882591,"[-33.8601300, 121.8825910]"
803,Geraldton,Australia,27259,-28.778971,114.614594,"[-28.7789710, 114.6145940]"
804,Karratha,Australia,11694,-20.73649,116.84638,"[-20.7364900, 116.8463800]"
805,Kununurra,Australia,5679,-15.77813,128.744141,"[-15.7781300, 128.7441410]"
806,Kwinana,Australia,20087,-32.230129,115.781281,"[-32.2301290, 115.7812810]"
807,Mandurah,Australia,73369,-32.526901,115.721703,"[-32.5269010, 115.7217030]"
808,Northam,Australia,5858,-31.649321,116.674232,"[-31.6493210, 116.6742320]"
809,Perth,Australia,1446715,-31.95224,115.861397,"[-31.9522400, 115.8613970]"
810,Port Hedland,Australia,14289,-20.312149,118.610588,"[-20.3121490, 118.6105880]"
811,Roebourne,Australia,19264,-20.772289,117.146477,"[-20.7722890, 117.1464770]"
812,Ararat,Australia,6111,-37.285419,142.927277,"[-37.2854190, 142.9272770]"
813,Bairnsdale,Australia,11006,-37.822891,147.610413,"[-37.8228910, 147.6104130]"
814,Ballarat,Australia,85110,-37.56266,143.862579,"[-37.5626600, 143.8625790]"
815,Benalla,Australia,9020,-36.551128,145.984253,"[-36.5511280, 145.9842530]"
816,Bendigo,Australia,81658,-36.758179,144.280243,"[-36.7581790, 144.2802430]"
817,Castlemaine,Australia,6604,-37.067089,144.216843,"[-37.0670890, 144.2168430]"
818,Clifton Springs,Australia,7413,-38.1567,144.555099,"[-38.1567000, 144.5550990]"
819,Colac,Australia,9089,-38.339001,143.584885,"[-38.3390010, 143.5848850]"
820,Craigieburn,Australia,19728,-37.6,144.95,"[-37.6000000, 144.9500000]"
821,Cranbourne,Australia,39420,-38.113419,145.283264,"[-38.1134190, 145.2832640]"
822,Crib Point,Australia,6908,-38.35,145.2,"[-38.3500000, 145.2000000]"
823,Geelong,Australia,150438,-38.153461,144.358093,"[-38.1534610, 144.3580930]"
824,Hamilton,Australia,8869,-37.74334,142.028915,"[-37.7433400, 142.0289150]"
825,Hastings,Australia,6583,-38.3,145.183333,"[-38.3000000, 145.1833330]"
826,Healesville,Australia,7098,-37.65395,145.517181,"[-37.6539500, 145.5171810]"
827,Horsham,Australia,12830,-36.711311,142.199814,"[-36.7113110, 142.1998140]"
828,Kyabram,Australia,6396,-36.313351,145.050354,"[-36.3133510, 145.0503540]"
829,Lakes Entrance,Australia,5849,-37.878941,147.995132,"[-37.8789410, 147.9951320]"
830,Lara,Australia,8179,-38.02388,144.406174,"[-38.0238800, 144.4061740]"
831,Leopold,Australia,6120,-38.19001,144.468246,"[-38.1900100, 144.4682460]"
832,Maryborough,Australia,7046,-37.04562,143.739227,"[-37.0456200, 143.7392270]"
833,Melbourne,Australia,3730212,-37.813938,144.963425,"[-37.8139380, 144.9634250]"
834,Melton,Australia,32369,-37.683392,144.585434,"[-37.6833920, 144.5854340]"
835,Mildura,Australia,47867,-34.185509,142.162506,"[-34.1855090, 142.1625060]"
836,Morwell,Australia,11585,-38.23476,146.394989,"[-38.2347600, 146.3949890]"
837,Pakenham,Australia,10602,-38.070179,145.474106,"[-38.0701790, 145.4741060]"
838,Portland,Australia,8842,-38.352612,141.605743,"[-38.3526120, 141.6057430]"
839,Sale,Australia,12917,-38.11095,147.068024,"[-38.1109500, 147.0680240]"
840,Somerville,Australia,7015,-38.216667,145.166667,"[-38.2166670, 145.1666670]"
841,Stawell,Australia,6991,-37.05632,142.780884,"[-37.0563200, 142.7808840]"
842,Sunbury,Australia,29926,-37.577419,144.726074,"[-37.5774190, 144.7260740]"
843,Swan Hill,Australia,9276,-35.3386,143.559525,"[-35.3386000, 143.5595250]"
844,Traralgon,Australia,18226,-38.195278,146.541504,"[-38.1952780, 146.5415040]"
845,Wangaratta,Australia,14023,-36.358459,146.320557,"[-36.3584590, 146.3205570]"
846,Warragul,Australia,9128,-38.159119,145.931183,"[-38.1591190, 145.9311830]"
847,Warrnambool,Australia,29928,-38.38176,142.487991,"[-38.3817600, 142.4879910]"
848,Wodonga,Australia,31518,-36.121792,146.888092,"[-36.1217920, 146.8880920]"
849,Wonthaggi,Australia,5985,-38.605862,145.593552,"[-38.6058620, 145.5935520]"
850,Atherton,Australia,6959,-17.268641,145.47522,"[-17.2686410, 145.4752200]"
851,Ayr,Australia,9079,-19.573931,147.406662,"[-19.5739310, 147.4066620]"
852,Biloela,Australia,6309,-24.416667,150.5,"[-24.4166670, 150.5000000]"
853,Blackwater,Australia,7250,-23.583509,148.87912,"[-23.5835090, 148.8791200]"
854,Bongaree,Australia,13649,-27.08367,153.159424,"[-27.0836700, 153.1594240]"
855,Bowen,Australia,10983,-20.01367,148.247543,"[-20.0136700, 148.2475430]"
856,Brisbane,Australia,1843459,-27.47101,153.024292,"[-27.4710100, 153.0242920]"
857,Buderim,Australia,15228,-26.684429,153.057053,"[-26.6844290, 153.0570530]"
858,Bundaberg,Australia,52478,-24.866211,152.3479,"[-24.8662110, 152.3479000]"
859,Burpengary,Australia,8280,-27.161131,152.959442,"[-27.1611310, 152.9594420]"
860,Caboolture,Australia,21478,-27.08465,152.951096,"[-27.0846500, 152.9510960]"
861,Cairns,Australia,154318,-16.92304,145.766251,"[-16.9230400, 145.7662510]"
862,Caloundra,Australia,38714,-26.797091,153.137711,"[-26.7970910, 153.1377110]"
863,Charters Towers,Australia,9574,-20.07671,146.263535,"[-20.0767100, 146.2635350]"
864,Coolum Beach,Australia,8555,-26.533331,153.091232,"[-26.5333310, 153.0912320]"
865,Dalby,Australia,9848,-27.18169,151.262054,"[-27.1816900, 151.2620540]"
866,Deception Bay,Australia,16090,-27.193541,153.026306,"[-27.1935410, 153.0263060]"
867,Emerald,Australia,9399,-23.522961,148.157837,"[-23.5229610, 148.1578370]"
868,Gatton,Australia,6513,-27.558729,152.276184,"[-27.5587290, 152.2761840]"
869,Gladstone,Australia,30493,-23.84761,151.256348,"[-23.8476100, 151.2563480]"
870,Gold Coast,Australia,501175,-28.00029,153.430878,"[-28.0002900, 153.4308780]"
871,Gympie,Australia,11029,-26.189159,152.658188,"[-26.1891590, 152.6581880]"
872,Hervey Bay,Australia,47561,-25.285,152.873,"[-25.2850000, 152.8730000]"
873,Ingham,Australia,6127,-18.645519,146.162476,"[-18.6455190, 146.1624760]"
874,Innisfail,Australia,10144,-17.522091,146.031021,"[-17.5220910, 146.0310210]"
875,Kawana Waters,Australia,19881,-26.705999,153.131577,"[-26.7059990, 153.1315770]"
876,Kingaroy,Australia,8573,-26.53994,151.837296,"[-26.5399400, 151.8372960]"
877,Mackay,Australia,75924,-21.15345,149.165543,"[-21.1534500, 149.1655430]"
878,Mareeba,Australia,8403,-16.995001,145.423233,"[-16.9950010, 145.4232330]"
879,Maryborough,Australia,20680,-25.54073,152.704926,"[-25.5407300, 152.7049260]"
880,Moranbah,Australia,7955,-21.99828,148.034836,"[-21.9982800, 148.0348360]"
881,Morayfield,Australia,10261,-27.108761,152.949066,"[-27.1087610, 152.9490660]"
882,Mount Isa,Australia,22564,-20.725229,139.497269,"[-20.7252290, 139.4972690]"
883,Nambour,Australia,14919,-26.626129,152.959412,"[-26.6261290, 152.9594120]"
884,Nerang,Australia,17684,-27.98941,153.336334,"[-27.9894100, 153.3363340]"
885,Rockhampton,Australia,65851,-23.38032,150.505951,"[-23.3803200, 150.5059510]"
886,Roma,Australia,5497,-26.56741,148.787506,"[-26.5674100, 148.7875060]"
887,Toowoomba,Australia,92802,-27.56056,151.953857,"[-27.5605600, 151.9538570]"
888,Torquay,Australia,6670,-25.283333,152.866667,"[-25.2833330, 152.8666670]"
889,Townsville,Australia,138959,-19.26639,146.805695,"[-19.2663900, 146.8056950]"
890,Victoria Point,Australia,11930,-27.58329,153.311722,"[-27.5832900, 153.3117220]"
891,Warwick,Australia,12347,-28.219009,152.034378,"[-28.2190090, 152.0343780]"
892,Yeppoon,Australia,10769,-23.126829,150.744064,"[-23.1268290, 150.7440640]"
893,Canberra,Australia,324025,-35.27603,149.13435,"[-35.2760300, 149.1343500]"
894,Albury,Australia,104261,-36.07494,146.923935,"[-36.0749400, 146.9239350]"
895,Armidale,Australia,22673,-30.50828,151.671234,"[-30.5082800, 151.6712340]"
896,Ballina,Australia,14248,-28.86414,153.565414,"[-28.8641400, 153.5654140]"
897,Batemans Bay,Australia,10557,-35.706581,150.175415,"[-35.7065810, 150.1754150]"
898,Bowral,Australia,9605,-34.477501,150.420395,"[-34.4775010, 150.4203950]"
899,Broken Hill,Australia,17395,-31.961729,141.459976,"[-31.9617290, 141.4599760]"
900,Byron Bay,Australia,6764,-28.64201,153.611938,"[-28.6420100, 153.6119380]"
901,Casino,Australia,9539,-28.858191,153.047485,"[-28.8581910, 153.0474850]"
902,Cessnock,Australia,16394,-32.832111,151.356232,"[-32.8321110, 151.3562320]"
903,Coffs Harbour,Australia,62978,-30.296261,153.11351,"[-30.2962610, 153.1135100]"
904,Cooma,Australia,6520,-36.234692,149.125977,"[-36.2346920, 149.1259770]"
905,Cootamundra,Australia,4934,-34.640949,148.028381,"[-34.6409490, 148.0283810]"
906,Corowa,Australia,5179,-35.999619,146.385803,"[-35.9996190, 146.3858030]"
907,Cowra,Australia,6799,-33.835541,148.696625,"[-33.8355410, 148.6966250]"
908,Deniliquin,Australia,8024,-35.527409,144.959579,"[-35.5274090, 144.9595790]"
909,Dubbo,Australia,29362,-32.24295,148.604843,"[-32.2429500, 148.6048430]"
910,Forbes,Australia,4838,-33.384361,148.007599,"[-33.3843610, 148.0075990]"
911,Goulburn,Australia,20941,-34.751549,149.720856,"[-34.7515490, 149.7208560]"
912,Grafton,Australia,16399,-29.690121,152.933365,"[-29.6901210, 152.9333650]"
913,Griffith,Australia,15456,-34.288528,146.050934,"[-34.2885280, 146.0509340]"
914,Gunnedah,Australia,7148,-30.98065,150.258377,"[-30.9806500, 150.2583770]"
915,Inverell,Australia,8561,-29.774031,151.111664,"[-29.7740310, 151.1116640]"
916,Kempsey,Australia,9522,-31.078979,152.830933,"[-31.0789790, 152.8309330]"
917,Kiama,Australia,10380,-34.668282,150.852188,"[-34.6682820, 150.8521880]"
918,Kurri Kurri,Australia,10991,-32.819328,151.47908,"[-32.8193280, 151.4790800]"
919,Leeton,Australia,7299,-34.551048,146.404831,"[-34.5510480, 146.4048310]"
920,Lemon Tree Passage,Australia,5865,-32.731579,152.037186,"[-32.7315790, 152.0371860]"
921,Lismore,Australia,31433,-28.81328,153.275803,"[-28.8132800, 153.2758030]"
922,Lithgow,Australia,11129,-33.482471,150.136307,"[-33.4824710, 150.1363070]"
923,Medowie,Australia,5841,-32.741501,151.867599,"[-32.7415010, 151.8675990]"
924,Mittagong,Australia,6717,-34.45002,150.445724,"[-34.4500200, 150.4457240]"
925,Moree,Australia,8205,-29.46278,149.841568,"[-29.4627800, 149.8415680]"
926,Moss Vale,Australia,6739,-34.553741,150.371155,"[-34.5537410, 150.3711550]"
927,Mudgee,Australia,9042,-32.433333,149.583333,"[-32.4333330, 149.5833330]"
928,Murwillumbah,Australia,6868,-28.32732,153.393387,"[-28.3273200, 153.3933870]"
929,Muswellbrook,Australia,11630,-32.261181,150.890091,"[-32.2611810, 150.8900910]"
930,Nambucca Heads,Australia,6899,-30.643181,153.008835,"[-30.6431810, 153.0088350]"
931,Narrabri,Australia,7082,-30.32612,149.783707,"[-30.3261200, 149.7837070]"
932,Nelson Bay,Australia,7725,-32.720428,152.143982,"[-32.7204280, 152.1439820]"
933,Newcastle,Australia,497961,-32.927792,151.784485,"[-32.9277920, 151.7844850]"
934,Orange,Australia,30402,-33.283089,149.100006,"[-33.2830890, 149.1000060]"
935,Parkes,Australia,11137,-33.137199,148.175903,"[-33.1371990, 148.1759030]"
936,Port Macquarie,Australia,48553,-31.43084,152.908936,"[-31.4308400, 152.9089360]"
937,Queanbeyan,Australia,32249,-35.354931,149.231995,"[-35.3549310, 149.2319950]"
938,Raymond Terrace,Australia,13606,-32.75,151.75,"[-32.7500000, 151.7500000]"
939,Sawtell,Australia,14608,-30.36459,153.10141,"[-30.3645900, 153.1014100]"
940,Singleton,Australia,13813,-32.567421,151.166031,"[-32.5674210, 151.1660310]"
941,Sydney,Australia,4394585,-33.861481,151.205475,"[-33.8614810, 151.2054750]"
942,Tamworth,Australia,38552,-31.090481,150.929047,"[-31.0904810, 150.9290470]"
943,Taree,Australia,44183,-31.91099,152.453873,"[-31.9109900, 152.4538730]"
944,Tumut,Australia,6526,-35.300159,148.225052,"[-35.3001590, 148.2250520]"
945,Ulladulla,Australia,9250,-35.359058,150.472473,"[-35.3590580, 150.4724730]"
946,Wagga Wagga,Australia,55382,-35.125771,147.353745,"[-35.1257710, 147.3537450]"
947,Wellington,Australia,5428,-32.555882,148.945084,"[-32.5558820, 148.9450840]"
948,Wollongong,Australia,260918,-34.424,150.893448,"[-34.4240000, 150.8934480]"
949,Young,Australia,7501,-34.313499,148.301071,"[-34.3134990, 148.3010710]"
950,Aran,Azerbaijan,6724,40.625278,46.975556,"[40.6252780, 46.9755560]"
951,Corat,Azerbaijan,8624,40.5725,49.706389,"[40.5725000, 49.7063890]"
952,Culfa,Azerbaijan,10820,38.9558,45.6308,"[38.9558000, 45.6308000]"
953,Gilazi,Azerbaijan,3277,40.903896,49.335522,"[40.9038960, 49.3355220]"
954,Gilazi,Azerbaijan,3277,40.870977,49.342333,"[40.8709770, 49.3423330]"
955,Hadrut,Azerbaijan,2523,39.520018,47.0318,"[39.5200180, 47.0318000]"
956,Haftoni,Azerbaijan,2003,38.763253,48.762231,"[38.7632530, 48.7622310]"
957,Hasanabad,Azerbaijan,4308,39.336672,49.214143,"[39.3366720, 49.2141430]"
958,Lerik,Azerbaijan,7094,38.772633,48.412788,"[38.7726330, 48.4127880]"
959,Masalli,Azerbaijan,9603,39.027781,48.670276,"[39.0277810, 48.6702760]"
960,Mincivan,Azerbaijan,6353,39.029348,46.718471,"[39.0293480, 46.7184710]"
961,Naftalan,Azerbaijan,7045,40.506667,46.825,"[40.5066670, 46.8250000]"
962,Neftçala,Azerbaijan,18661,39.37417,49.247224,"[39.3741700, 49.2472240]"
963,Ordubad,Azerbaijan,9781,38.905954,46.023411,"[38.9059540, 46.0234110]"
964,Qaraçala,Azerbaijan,4211,39.813178,48.952303,"[39.8131780, 48.9523030]"
965,Qarayeri,Azerbaijan,5565,40.78862,46.306589,"[40.7886200, 46.3065890]"
966,Qax,Azerbaijan,11993,41.4225,46.924167,"[41.4225000, 46.9241670]"
967,Qazax,Azerbaijan,18904,41.093333,45.366111,"[41.0933330, 45.3661110]"
968,Qovlar,Azerbaijan,12819,40.942137,45.732171,"[40.9421370, 45.7321710]"
969,Quba,Azerbaijan,22405,41.362587,48.515186,"[41.3625870, 48.5151860]"
970,Qusar,Azerbaijan,16022,41.427284,48.42893,"[41.4272840, 48.4289300]"
971,Sabirabad,Azerbaijan,28076,40.009458,48.475154,"[40.0094580, 48.4751540]"
972,Sahbuz,Azerbaijan,2674,39.407222,45.573889,"[39.4072220, 45.5738890]"
973,Salyan,Azerbaijan,36555,39.593615,48.980552,"[39.5936150, 48.9805520]"
974,Samur,Azerbaijan,1760,41.632544,48.430248,"[41.6325440, 48.4302480]"
975,Sollar,Azerbaijan,205,41.639727,48.664408,"[41.6397270, 48.6644080]"
976,Suraabad,Azerbaijan,1945,40.819244,49.468745,"[40.8192440, 49.4687450]"
977,Susa,Azerbaijan,18663,39.758934,46.749187,"[39.7589340, 46.7491870]"
978,Tovuz,Azerbaijan,12626,40.992222,45.628889,"[40.9922220, 45.6288890]"
979,Ucar,Azerbaijan,15741,40.518333,47.654167,"[40.5183330, 47.6541670]"
980,Xaçmaz,Azerbaijan,37175,41.463489,48.80605,"[41.4634890, 48.8060500]"
981,Xanlar,Azerbaijan,17816,40.586944,46.315833,"[40.5869440, 46.3158330]"
982,Xocali,Azerbaijan,5810,39.9,46.866667,"[39.9000000, 46.8666670]"
983,Xocali,Azerbaijan,5810,39.912973,46.790284,"[39.9129730, 46.7902840]"
984,Xudat,Azerbaijan,13625,41.630965,48.681,"[41.6309650, 48.6810000]"
985,Yevlax,Azerbaijan,53715,40.612732,47.142329,"[40.6127320, 47.1423290]"
986,Zaqatala,Azerbaijan,18277,41.633611,46.643333,"[41.6336110, 46.6433330]"
987,Imisli,Azerbaijan,31381,39.871307,48.064094,"[39.8713070, 48.0640940]"
988,Göyçay,Azerbaijan,35348,40.653056,47.740556,"[40.6530560, 47.7405560]"
989,Istisu,Azerbaijan,929,39.947532,45.962121,"[39.9475320, 45.9621210]"
990,Mugan,Azerbaijan,4410,40.095182,48.821136,"[40.0951820, 48.8211360]"
991,Basqal,Azerbaijan,1234,40.7552,48.391044,"[40.7552000, 48.3910440]"
992,Goranboy,Azerbaijan,7334,40.610278,46.789722,"[40.6102780, 46.7897220]"
993,Qazanbulaq,Azerbaijan,980,40.618611,46.645278,"[40.6186110, 46.6452780]"
994,Horadiz,Azerbaijan,2714,39.448771,47.335313,"[39.4487710, 47.3353130]"
995,Alunitdag,Azerbaijan,857,40.521667,46.080556,"[40.5216670, 46.0805560]"
996,Quscu,Azerbaijan,408,40.555556,46.091944,"[40.5555560, 46.0919440]"
997,Pushkino,Azerbaijan,18182,39.458333,48.545,"[39.4583330, 48.5450000]"
998,Qabaqçöl,Azerbaijan,1293,41.72,46.264722,"[41.7200000, 46.2647220]"
999,Artyom,Azerbaijan,13435,40.472255,50.333041,"[40.4722550, 50.3330410]"
1000,Badamdar,Azerbaijan,11398,40.339444,49.803889,"[40.3394440, 49.8038890]"
1001,Baku,Azerbaijan,1116513,40.395278,49.882222,"[40.3952780, 49.8822220]"
1002,Buzovna,Azerbaijan,24795,40.517888,50.113901,"[40.5178880, 50.1139010]"
1003,Gürgan,Azerbaijan,712,40.397462,50.336733,"[40.3974620, 50.3367330]"
1004,Hövsan,Azerbaijan,36293,40.374444,50.085278,"[40.3744440, 50.0852780]"
1005,Kesla,Azerbaijan,17913,40.397778,49.898611,"[40.3977780, 49.8986110]"
1006,Kirovskiy,Azerbaijan,34488,40.433333,49.85,"[40.4333330, 49.8500000]"
1007,Korgöz,Azerbaijan,2036,40.303056,49.62,"[40.3030560, 49.6200000]"
1008,Lökbatan,Azerbaijan,30694,40.323718,49.728038,"[40.3237180, 49.7280380]"
1009,Mastaga,Azerbaijan,40092,40.532778,50.003889,"[40.5327780, 50.0038890]"
1010,Nardaran,Azerbaijan,7700,40.556111,50.005556,"[40.5561110, 50.0055560]"
1011,Pirsagi,Azerbaijan,5102,40.564032,49.8913,"[40.5640320, 49.8913000]"
1012,Puta,Azerbaijan,1018,40.296667,49.660278,"[40.2966670, 49.6602780]"
1013,Qala,Azerbaijan,2709,40.44182,50.168121,"[40.4418200, 50.1681210]"
1014,Qaraçuxur,Azerbaijan,72989,40.396667,49.973611,"[40.3966670, 49.9736110]"
1015,Qobustan,Azerbaijan,13398,40.08238,49.412048,"[40.0823800, 49.4120480]"
1016,Ramana,Azerbaijan,8855,40.442222,49.980556,"[40.4422220, 49.9805560]"
1017,Sabunçu,Azerbaijan,20996,40.4425,49.948056,"[40.4425000, 49.9480560]"
1018,Sonqar,Azerbaijan,730,40.322099,49.601085,"[40.3220990, 49.6010850]"
1019,Türkan,Azerbaijan,9699,40.363889,50.215,"[40.3638890, 50.2150000]"
1020,Xocasan,Azerbaijan,5089,40.413484,49.772088,"[40.4134840, 49.7720880]"
1021,Zabrat,Azerbaijan,21396,40.476104,49.941582,"[40.4761040, 49.9415820]"
1022,Zig,Azerbaijan,6001,40.343889,49.969167,"[40.3438890, 49.9691670]"
1023,Agsu,Azerbaijan,17209,40.569167,48.396476,"[40.5691670, 48.3964760]"
1024,Agstafa,Azerbaijan,12542,41.118889,45.453889,"[41.1188890, 45.4538890]"
1025,Vurgun,Azerbaijan,2635,41.094229,45.471616,"[41.0942290, 45.4716160]"
1026,Agdam,Azerbaijan,39451,39.99096,46.927356,"[39.9909600, 46.9273560]"
1027,Astara,Azerbaijan,15190,38.455977,48.87498,"[38.4559770, 48.8749800]"
1028,Kijäba,Azerbaijan,4567,38.532778,48.816667,"[38.5327780, 48.8166670]"
1029,Agdas,Azerbaijan,23528,40.65,47.476111,"[40.6500000, 47.4761110]"
1030,Türyançay,Azerbaijan,307,40.7088,47.54326,"[40.7088000, 47.5432600]"
1031,Ceyranbatan,Azerbaijan,5684,40.540833,49.659722,"[40.5408330, 49.6597220]"
1032,Guzdak,Azerbaijan,2462,40.374444,49.681944,"[40.3744440, 49.6819440]"
1033,Qobu,Azerbaijan,7377,40.404722,49.713056,"[40.4047220, 49.7130560]"
1034,Saray,Azerbaijan,10173,40.532222,49.716389,"[40.5322220, 49.7163890]"
1035,Brcko,Bosnia and Herzegovina,38478,44.8727778,18.8083333,"[44.8727778, 18.8083333]"
1036,Banovici,Bosnia and Herzegovina,7211,44.4041667,18.4475,"[44.4041667, 18.4475000]"
1037,Barice,Bosnia and Herzegovina,3697,44.5405556,18.4811111,"[44.5405556, 18.4811111]"
1038,Bihac,Bosnia and Herzegovina,75641,44.8169444,15.8708333,"[44.8169444, 15.8708333]"
1039,Bijela,Bosnia and Herzegovina,3484,43.6086111,17.9519444,"[43.6086111, 17.9519444]"
1040,Bila,Bosnia and Herzegovina,4397,43.7825,16.9252778,"[43.7825000, 16.9252778]"
1041,Blagaj,Bosnia and Herzegovina,4715,43.2575,17.8886111,"[43.2575000, 17.8886111]"
1042,Bosanska Krupa,Bosnia and Herzegovina,15193,44.8825,16.1513889,"[44.8825000, 16.1513889]"
1043,Bosansko Grahovo,Bosnia and Herzegovina,5642,44.1794444,16.3638889,"[44.1794444, 16.3638889]"
1044,Breza,Bosnia and Herzegovina,3732,44.0161111,18.2588889,"[44.0161111, 18.2588889]"
1045,Bugojno,Bosnia and Herzegovina,41378,44.0572222,17.4508333,"[44.0572222, 17.4508333]"
1046,Busovaca,Bosnia and Herzegovina,4775,44.0975,17.8788889,"[44.0975000, 17.8788889]"
1047,Buzim,Bosnia and Herzegovina,7229,45.0547222,16.0319444,"[45.0547222, 16.0319444]"
1048,Capljina,Bosnia and Herzegovina,7923,43.1138889,17.7036111,"[43.1138889, 17.7036111]"
1049,Careva Cuprija,Bosnia and Herzegovina,3954,44.2658333,18.4291667,"[44.2658333, 18.4291667]"
1050,Cazin,Bosnia and Herzegovina,21741,44.9669444,15.9430556,"[44.9669444, 15.9430556]"
1051,Cim,Bosnia and Herzegovina,3966,43.3527778,17.7772222,"[43.3527778, 17.7772222]"
1052,Citluk,Bosnia and Herzegovina,5718,43.2286111,17.7008333,"[43.2286111, 17.7008333]"
1053,Coralici,Bosnia and Herzegovina,5223,44.9830556,15.9041667,"[44.9830556, 15.9041667]"
1054,Crnici,Bosnia and Herzegovina,5789,43.1288889,17.8666667,"[43.1288889, 17.8666667]"
1055,Divicani,Bosnia and Herzegovina,7250,44.3666667,17.3261111,"[44.3666667, 17.3261111]"
1056,Dobrinje,Bosnia and Herzegovina,3987,44.0497222,18.1194444,"[44.0497222, 18.1194444]"
1057,Donja Dubica,Bosnia and Herzegovina,3489,45.075,18.4113889,"[45.0750000, 18.4113889]"
1058,Donja Mahala,Bosnia and Herzegovina,5565,45.0469444,18.6663889,"[45.0469444, 18.6663889]"
1059,Donja Medjidja,Bosnia and Herzegovina,3782,44.8025,18.4033333,"[44.8025000, 18.4033333]"
1060,Donja Orahovica,Bosnia and Herzegovina,5612,44.6530556,18.3702778,"[44.6530556, 18.3702778]"
1061,Donje Dubrave,Bosnia and Herzegovina,3811,44.4811111,18.6961111,"[44.4811111, 18.6961111]"
1062,Donje Vukovije,Bosnia and Herzegovina,3535,44.4636111,18.7538889,"[44.4636111, 18.7538889]"
1063,Donji Vakuf,Bosnia and Herzegovina,7955,44.1436111,17.4,"[44.1436111, 17.4000000]"
1064,Dreznica,Bosnia and Herzegovina,3908,43.5288889,17.2819444,"[43.5288889, 17.2819444]"
1065,Drinovci,Bosnia and Herzegovina,3791,43.355,17.3538889,"[43.3550000, 17.3538889]"
1066,Dubravica,Bosnia and Herzegovina,3868,44.4419444,18.1180556,"[44.4419444, 18.1180556]"
1067,Fojnica,Bosnia and Herzegovina,8244,43.9625,17.8983333,"[43.9625000, 17.8983333]"
1068,Glamoc,Bosnia and Herzegovina,4015,44.0458333,16.8486111,"[44.0458333, 16.8486111]"
1069,Gnojnica,Bosnia and Herzegovina,3985,44.6205556,18.4466667,"[44.6205556, 18.4466667]"
1070,Gorazde,Bosnia and Herzegovina,17649,43.6669444,18.9763889,"[43.6669444, 18.9763889]"
1071,Gornja Koprivna,Bosnia and Herzegovina,4600,45.0119444,15.9572222,"[45.0119444, 15.9572222]"
1072,Gornja Tuzla,Bosnia and Herzegovina,4864,44.5561111,18.7613889,"[44.5561111, 18.7613889]"
1073,Gornje Dubrave,Bosnia and Herzegovina,4821,44.4713889,18.7297222,"[44.4713889, 18.7297222]"
1074,Gornje Zivinice,Bosnia and Herzegovina,4661,44.4286111,18.6169444,"[44.4286111, 18.6169444]"
1075,Gornji Vakuf,Bosnia and Herzegovina,7014,43.9380556,17.5883333,"[43.9380556, 17.5883333]"
1076,Gostovici,Bosnia and Herzegovina,5802,44.415,18.1583333,"[44.4150000, 18.1583333]"
1077,Gracanica,Bosnia and Herzegovina,15758,44.7033333,18.3097222,"[44.7033333, 18.3097222]"
1078,Gradacac,Bosnia and Herzegovina,15659,44.8808333,18.4269444,"[44.8808333, 18.4269444]"
1079,Gromiljak,Bosnia and Herzegovina,6457,43.9666667,18.0530556,"[43.9666667, 18.0530556]"
1080,Grude,Bosnia and Herzegovina,4627,43.3641667,17.4205556,"[43.3641667, 17.4205556]"
1081,Hadzici,Bosnia and Herzegovina,7173,43.8222222,18.2066667,"[43.8222222, 18.2066667]"
1082,Hotonj,Bosnia and Herzegovina,4013,43.8947222,18.3727778,"[43.8947222, 18.3727778]"
1083,Ilici,Bosnia and Herzegovina,3688,43.3472222,17.7680556,"[43.3472222, 17.7680556]"
1084,Ilijas,Bosnia and Herzegovina,5854,43.9508333,18.2708333,"[43.9508333, 18.2708333]"
1085,Izacic,Bosnia and Herzegovina,4089,44.875,15.7819444,"[44.8750000, 15.7819444]"
1086,Jablanica,Bosnia and Herzegovina,6209,43.6602778,17.7616667,"[43.6602778, 17.7616667]"
1087,Jajce,Bosnia and Herzegovina,9762,44.3422222,17.2655556,"[44.3422222, 17.2655556]"
1088,Jelah,Bosnia and Herzegovina,5291,44.6541667,17.9580556,"[44.6541667, 17.9580556]"
1089,Jezerski,Bosnia and Herzegovina,4361,44.9808333,16.0841667,"[44.9808333, 16.0841667]"
1090,Kacuni,Bosnia and Herzegovina,5042,44.065,17.9386111,"[44.0650000, 17.9386111]"
1091,Kakanj,Bosnia and Herzegovina,12405,44.1272222,18.1180556,"[44.1272222, 18.1180556]"
1092,Karadaglije,Bosnia and Herzegovina,3700,44.5716667,18.0183333,"[44.5716667, 18.0183333]"
1093,Kiseljak,Bosnia and Herzegovina,3447,44.4888889,18.5688889,"[44.4888889, 18.5688889]"
1094,Kladanj,Bosnia and Herzegovina,6783,44.2263889,18.6913889,"[44.2263889, 18.6913889]"
1095,Kljuc,Bosnia and Herzegovina,7244,44.535,16.7722222,"[44.5350000, 16.7722222]"
1096,Kobilja Glava,Bosnia and Herzegovina,3666,43.8819444,18.3891667,"[43.8819444, 18.3891667]"
1097,Kocerin,Bosnia and Herzegovina,3516,43.3897222,17.485,"[43.3897222, 17.4850000]"
1098,Konjic,Bosnia and Herzegovina,15950,43.6519444,17.9613889,"[43.6519444, 17.9613889]"
1099,Lijesnica,Bosnia and Herzegovina,3559,44.4941667,18.0741667,"[44.4941667, 18.0741667]"
1100,Listica,Bosnia and Herzegovina,9370,43.3833333,17.5927778,"[43.3833333, 17.5927778]"
1101,Livno,Bosnia and Herzegovina,11748,43.8269444,17.0077778,"[43.8269444, 17.0077778]"
1102,Ljubuski,Bosnia and Herzegovina,9987,43.1969444,17.545,"[43.1969444, 17.5450000]"
1103,Lokvine,Bosnia and Herzegovina,3928,44.2047222,17.8563889,"[44.2047222, 17.8563889]"
1104,Lukavac,Bosnia and Herzegovina,12607,44.5419444,18.5258333,"[44.5419444, 18.5258333]"
1105,Lukavica,Bosnia and Herzegovina,4084,44.7627778,18.1688889,"[44.7627778, 18.1688889]"
1106,Maglaj,Bosnia and Herzegovina,7398,44.5491667,18.0966667,"[44.5491667, 18.0966667]"
1107,Mala Kladusa,Bosnia and Herzegovina,6033,45.1341667,15.8586111,"[45.1341667, 15.8586111]"
1108,Malesici,Bosnia and Herzegovina,3764,44.7380556,18.2738889,"[44.7380556, 18.2738889]"
1109,Mionica,Bosnia and Herzegovina,8701,44.8672222,18.4630556,"[44.8672222, 18.4630556]"
1110,Mostar,Bosnia and Herzegovina,104517,43.3433333,17.8080556,"[43.3433333, 17.8080556]"
1111,Mostre,Bosnia and Herzegovina,4009,44.025,18.1413889,"[44.0250000, 18.1413889]"
1112,Mramor,Bosnia and Herzegovina,3918,44.5916667,18.5644444,"[44.5916667, 18.5644444]"
1113,Novi Seher,Bosnia and Herzegovina,4416,44.5102778,18.0258333,"[44.5102778, 18.0258333]"
1114,Novi Travnik,Bosnia and Herzegovina,10006,44.1711111,17.6575,"[44.1711111, 17.6575000]"
1115,Odzak,Bosnia and Herzegovina,11621,45.0111111,18.3266667,"[45.0111111, 18.3266667]"
1116,Olovo,Bosnia and Herzegovina,3305,44.13,18.5827778,"[44.1300000, 18.5827778]"
1117,Orasac,Bosnia and Herzegovina,3856,44.6288889,16.0711111,"[44.6288889, 16.0711111]"
1118,Orasje,Bosnia and Herzegovina,3613,45.0355556,18.6933333,"[45.0355556, 18.6933333]"
1119,Orguz,Bosnia and Herzegovina,4371,43.7738889,16.8638889,"[43.7738889, 16.8638889]"
1120,Ostrozac,Bosnia and Herzegovina,5456,44.9086111,15.9402778,"[44.9086111, 15.9402778]"
1121,Otoka,Bosnia and Herzegovina,6595,44.96,16.1791667,"[44.9600000, 16.1791667]"
1122,Pajic Polje,Bosnia and Herzegovina,4026,43.9758333,17.5275,"[43.9758333, 17.5275000]"
1123,Pazaric,Bosnia and Herzegovina,4787,43.7886111,18.1608333,"[43.7886111, 18.1608333]"
1124,Pecigrad,Bosnia and Herzegovina,6514,45.0544444,15.8969444,"[45.0544444, 15.8969444]"
1125,Peci,Bosnia and Herzegovina,3650,44.6272222,16.7861111,"[44.6272222, 16.7861111]"
1126,Pjanici,Bosnia and Herzegovina,3537,44.9836111,15.8227778,"[44.9836111, 15.8227778]"
1127,Podhum,Bosnia and Herzegovina,5801,43.7230556,17.0011111,"[43.7230556, 17.0011111]"
1128,Podzvizd,Bosnia and Herzegovina,6665,45.1741667,15.8736111,"[45.1741667, 15.8736111]"
1129,Polje,Bosnia and Herzegovina,3799,43.8805556,18.0744444,"[43.8805556, 18.0744444]"
1130,Posusje,Bosnia and Herzegovina,5114,43.4722222,17.3266667,"[43.4722222, 17.3266667]"
1131,Potoci,Bosnia and Herzegovina,8311,43.4086111,17.8786111,"[43.4086111, 17.8786111]"
1132,Prozor,Bosnia and Herzegovina,10349,43.8222222,17.6091667,"[43.8222222, 17.6091667]"
1133,Puracic,Bosnia and Herzegovina,3461,44.5469444,18.4766667,"[44.5469444, 18.4766667]"
1134,Radisici,Bosnia and Herzegovina,4071,43.2219444,17.5430556,"[43.2219444, 17.5430556]"
1135,Rodoc,Bosnia and Herzegovina,5159,43.3088889,17.8069444,"[43.3088889, 17.8069444]"
1136,Rumboci,Bosnia and Herzegovina,3854,43.8322222,17.5011111,"[43.8322222, 17.5011111]"
1137,Sanica,Bosnia and Herzegovina,5666,44.6141667,16.6411111,"[44.6141667, 16.6411111]"
1138,Sanski Most,Bosnia and Herzegovina,13550,44.7652778,16.6655556,"[44.7652778, 16.6655556]"
1139,Sarajevo,Bosnia and Herzegovina,696726,43.85,18.3833333,"[43.8500000, 18.3833333]"
1140,Serici,Bosnia and Herzegovina,3663,44.4652778,18.5580556,"[44.4652778, 18.5580556]"
1141,Skokovi,Bosnia and Herzegovina,3553,45.0313889,15.9144444,"[45.0313889, 15.9144444]"
1142,Sladna,Bosnia and Herzegovina,4304,44.7294444,18.4241667,"[44.7294444, 18.4241667]"
1143,Solina,Bosnia and Herzegovina,4780,44.5602778,18.6947222,"[44.5602778, 18.6947222]"
1144,Srebrenik,Bosnia and Herzegovina,6723,44.7077778,18.4880556,"[44.7077778, 18.4880556]"
1145,Stijena,Bosnia and Herzegovina,10844,44.9352778,16.0172222,"[44.9352778, 16.0172222]"
1146,Stolac,Bosnia and Herzegovina,7733,43.0844444,17.9575,"[43.0844444, 17.9575000]"
1147,Stupari,Bosnia and Herzegovina,4424,44.3147222,18.6841667,"[44.3147222, 18.6841667]"
1148,Sturlic,Bosnia and Herzegovina,5013,45.0638889,15.7780556,"[45.0638889, 15.7780556]"
1149,Sumatac,Bosnia and Herzegovina,4987,45.0988889,15.8575,"[45.0988889, 15.8575000]"
1150,Svojat,Bosnia and Herzegovina,3515,44.3947222,18.7391667,"[44.3947222, 18.7391667]"
1151,Tesanjka,Bosnia and Herzegovina,5666,44.6730556,18.0127778,"[44.6730556, 18.0127778]"
1152,Tesanj,Bosnia and Herzegovina,7549,44.6116667,17.9872222,"[44.6116667, 17.9872222]"
1153,Todorovo,Bosnia and Herzegovina,9560,45.0883333,15.9308333,"[45.0883333, 15.9308333]"
1154,Tojsici,Bosnia and Herzegovina,6587,44.4813889,18.7869444,"[44.4813889, 18.7869444]"
1155,Tolisa,Bosnia and Herzegovina,4282,45.0430556,18.6427778,"[45.0430556, 18.6427778]"
1156,Tomislavgrad,Bosnia and Herzegovina,7737,43.7180556,17.2266667,"[43.7180556, 17.2266667]"
1157,Travnik,Bosnia and Herzegovina,31127,44.2266667,17.6705556,"[44.2266667, 17.6705556]"
1158,Trzacka Rastela,Bosnia and Herzegovina,6617,44.9733333,15.7902778,"[44.9733333, 15.7902778]"
1159,Turbe,Bosnia and Herzegovina,4766,44.2436111,17.5713889,"[44.2436111, 17.5713889]"
1160,Tuzla,Bosnia and Herzegovina,142484,44.5427778,18.6694444,"[44.5427778, 18.6694444]"
1161,Ustikolina,Bosnia and Herzegovina,4446,43.5836111,18.79,"[43.5836111, 18.7900000]"
1162,Vares,Bosnia and Herzegovina,7193,44.1644444,18.3283333,"[44.1644444, 18.3283333]"
1163,Varoska Rijeka,Bosnia and Herzegovina,6573,45.0847222,16.0141667,"[45.0847222, 16.0141667]"
1164,Velagici,Bosnia and Herzegovina,4972,44.5572222,16.7316667,"[44.5572222, 16.7316667]"
1165,Velika Kladusa,Bosnia and Herzegovina,19330,45.1894444,15.8116667,"[45.1894444, 15.8116667]"
1166,Vidosi,Bosnia and Herzegovina,3905,43.7713889,17.0283333,"[43.7713889, 17.0283333]"
1167,Visoko,Bosnia and Herzegovina,17890,43.9888889,18.1780556,"[43.9888889, 18.1780556]"
1168,Vitez,Bosnia and Herzegovina,8140,44.1544444,17.7902778,"[44.1544444, 17.7902778]"
1169,Vitina,Bosnia and Herzegovina,4384,43.2375,17.4838889,"[43.2375000, 17.4838889]"
1170,Vogosca,Bosnia and Herzegovina,8179,43.9019444,18.3480556,"[43.9019444, 18.3480556]"
1171,Voljevac,Bosnia and Herzegovina,3764,43.8786111,17.6591667,"[43.8786111, 17.6591667]"
1172,Vozuca,Bosnia and Herzegovina,3209,44.3613889,18.3577778,"[44.3613889, 18.3577778]"
1173,Vrnograc,Bosnia and Herzegovina,6859,45.1636111,15.9536111,"[45.1636111, 15.9536111]"
1174,Zabrisce,Bosnia and Herzegovina,4261,43.7925,16.9422222,"[43.7925000, 16.9422222]"
1175,Zavidovici,Bosnia and Herzegovina,14380,44.4458333,18.1497222,"[44.4458333, 18.1497222]"
1176,Zboriste,Bosnia and Herzegovina,4922,45.1458333,16.0177778,"[45.1458333, 16.0177778]"
1177,Zeljezno Polje,Bosnia and Herzegovina,5783,44.4083333,17.9319444,"[44.4083333, 17.9319444]"
1178,Zenica,Bosnia and Herzegovina,164422,44.2013889,17.9063889,"[44.2013889, 17.9063889]"
1179,Zepce,Bosnia and Herzegovina,8502,44.4266667,18.0377778,"[44.4266667, 18.0377778]"
1180,Zivinice,Bosnia and Herzegovina,13640,44.4494444,18.6497222,"[44.4494444, 18.6497222]"
1181,Banja Luka,Bosnia and Herzegovina,221100,44.7758333,17.1855556,"[44.7758333, 17.1855556]"
1182,Batkovici,Bosnia and Herzegovina,4923,44.8536111,19.1963889,"[44.8536111, 19.1963889]"
1183,Bijeljina,Bosnia and Herzegovina,37691,44.7569444,19.2161111,"[44.7569444, 19.2161111]"
1184,Bileca,Bosnia and Herzegovina,13256,42.8719444,18.4297222,"[42.8719444, 18.4297222]"
1185,Blatnica,Bosnia and Herzegovina,5675,44.3530556,17.5894444,"[44.3530556, 17.5894444]"
1186,Bosanska Dubica,Bosnia and Herzegovina,9959,45.1766667,16.8094444,"[45.1766667, 16.8094444]"
1187,Bosanska Gradiska,Bosnia and Herzegovina,13345,45.1411111,17.25,"[45.1411111, 17.2500000]"
1188,Bosanska Kostajnica,Bosnia and Herzegovina,4739,45.2197222,16.5358333,"[45.2197222, 16.5358333]"
1189,Bosanski Brod,Bosnia and Herzegovina,9249,45.1375,17.9897222,"[45.1375000, 17.9897222]"
1190,Bosanski Novi,Bosnia and Herzegovina,8920,45.0458333,16.3802778,"[45.0458333, 16.3802778]"
1191,Bosanski Samac,Bosnia and Herzegovina,3599,45.0591667,18.4669444,"[45.0591667, 18.4669444]"
1192,Bratunac,Bosnia and Herzegovina,4717,44.1875,19.3394444,"[44.1875000, 19.3394444]"
1193,Bronzani Majdan,Bosnia and Herzegovina,3945,44.7869444,16.9311111,"[44.7869444, 16.9311111]"
1194,Cajnice,Bosnia and Herzegovina,3908,43.5575,19.0711111,"[43.5575000, 19.0711111]"
1195,Cecava,Bosnia and Herzegovina,3847,44.6866667,17.7705556,"[44.6866667, 17.7705556]"
1196,Celinac,Bosnia and Herzegovina,6670,44.7227778,17.3277778,"[44.7227778, 17.3277778]"
1197,Derventa,Bosnia and Herzegovina,9772,44.9772222,17.9102778,"[44.9772222, 17.9102778]"
1198,Doboj,Bosnia and Herzegovina,27234,44.7347222,18.0877778,"[44.7347222, 18.0877778]"
1199,Dobrljin,Bosnia and Herzegovina,3581,45.1469444,16.5033333,"[45.1469444, 16.5033333]"
1200,Foca,Bosnia and Herzegovina,14614,43.505,18.7786111,"[43.5050000, 18.7786111]"
1201,Gacko,Bosnia and Herzegovina,3417,43.1672222,18.5352778,"[43.1672222, 18.5352778]"
1202,Janja,Bosnia and Herzegovina,5543,44.6652778,19.2477778,"[44.6652778, 19.2477778]"
1203,Knezica,Bosnia and Herzegovina,4792,45.1027778,16.6775,"[45.1027778, 16.6775000]"
1204,Koran,Bosnia and Herzegovina,3394,43.8102778,18.5688889,"[43.8102778, 18.5688889]"
1205,Laktasi,Bosnia and Herzegovina,6464,44.9080556,17.3008333,"[44.9080556, 17.3008333]"
1206,Lamovita,Bosnia and Herzegovina,4582,44.9255556,16.9072222,"[44.9255556, 16.9072222]"
1207,Ljubinje,Bosnia and Herzegovina,4235,42.9508333,18.0886111,"[42.9508333, 18.0886111]"
1208,Lopare,Bosnia and Herzegovina,3614,44.6377778,18.8427778,"[44.6377778, 18.8427778]"
1209,Maglajani,Bosnia and Herzegovina,4221,44.9486111,17.3494444,"[44.9486111, 17.3494444]"
1210,Maricka,Bosnia and Herzegovina,3707,44.8588889,16.8522222,"[44.8588889, 16.8522222]"
1211,Maslovare,Bosnia and Herzegovina,4899,44.5655556,17.5336111,"[44.5655556, 17.5336111]"
1212,Milici,Bosnia and Herzegovina,8210,44.1316667,19.0316667,"[44.1316667, 19.0316667]"
1213,Modrica,Bosnia and Herzegovina,5135,44.9544444,18.3036111,"[44.9544444, 18.3036111]"
1214,Mrkonjic Grad,Bosnia and Herzegovina,14737,44.4158333,17.0861111,"[44.4158333, 17.0861111]"
1215,Nevesinje,Bosnia and Herzegovina,7312,43.2586111,18.1133333,"[43.2586111, 18.1133333]"
1216,Obudovac,Bosnia and Herzegovina,2171,44.965,18.6122222,"[44.9650000, 18.6122222]"
1217,Omarska,Bosnia and Herzegovina,6466,44.89,16.8991667,"[44.8900000, 16.8991667]"
1218,Ostra Luka,Bosnia and Herzegovina,3923,45.0,18.5883333,"[45.0000000, 18.5883333]"
1219,Pale,Bosnia and Herzegovina,7458,43.8161111,18.5694444,"[43.8161111, 18.5694444]"
1220,Petkovci,Bosnia and Herzegovina,2211,44.4530556,19.0761111,"[44.4530556, 19.0761111]"
1221,Piskavica,Bosnia and Herzegovina,3797,44.8341667,16.9888889,"[44.8341667, 16.9888889]"
1222,Podbrdo,Bosnia and Herzegovina,4028,44.4408333,17.0138889,"[44.4408333, 17.0138889]"
1223,Pribinic,Bosnia and Herzegovina,3558,44.6105556,17.6905556,"[44.6105556, 17.6905556]"
1224,Priboj,Bosnia and Herzegovina,4351,44.6027778,18.9313889,"[44.6027778, 18.9313889]"
1225,Prijedor,Bosnia and Herzegovina,36346,44.9813889,16.7130556,"[44.9813889, 16.7130556]"
1226,Prnjavor,Bosnia and Herzegovina,7098,44.8702778,17.6627778,"[44.8702778, 17.6627778]"
1227,Rogatica,Bosnia and Herzegovina,4946,43.8008333,19.0025,"[43.8008333, 19.0025000]"
1228,Sekovici,Bosnia and Herzegovina,6315,44.2986111,18.8527778,"[44.2986111, 18.8527778]"
1229,Sipovo,Bosnia and Herzegovina,10737,44.2813889,17.0838889,"[44.2813889, 17.0838889]"
1230,Skender Vakuf,Bosnia and Herzegovina,6866,44.4908333,17.3775,"[44.4908333, 17.3775000]"
1231,Sokolac,Bosnia and Herzegovina,8842,43.9397222,18.8016667,"[43.9397222, 18.8016667]"
1232,Srbac,Bosnia and Herzegovina,7380,45.0977778,17.525,"[45.0977778, 17.5250000]"
1233,Srebrenica,Bosnia and Herzegovina,2861,44.1063889,19.2969444,"[44.1063889, 19.2969444]"
1234,Stanari,Bosnia and Herzegovina,3590,44.7472222,17.8294444,"[44.7472222, 17.8294444]"
1235,Svodna,Bosnia and Herzegovina,4387,45.0372222,16.5383333,"[45.0372222, 16.5383333]"
1236,Teslic,Bosnia and Herzegovina,6404,44.6063889,17.8597222,"[44.6063889, 17.8597222]"
1237,Trebinje,Bosnia and Herzegovina,33177,42.7119444,18.3441667,"[42.7119444, 18.3441667]"
1238,Trn,Bosnia and Herzegovina,7553,44.8597222,17.2363889,"[44.8597222, 17.2363889]"
1239,Ugljevik,Bosnia and Herzegovina,3452,44.6636111,19.0202778,"[44.6636111, 19.0202778]"
1240,Velika Obarska,Bosnia and Herzegovina,5142,44.8052778,19.1641667,"[44.8052778, 19.1641667]"
1241,Visegrad,Bosnia and Herzegovina,6086,43.7847222,19.2991667,"[43.7847222, 19.2991667]"
1242,Vlasenica,Bosnia and Herzegovina,4508,44.1819444,18.9405556,"[44.1819444, 18.9405556]"
1243,Zivinice,Bosnia and Herzegovina,3718,44.5472222,17.375,"[44.5472222, 17.3750000]"
1244,Zvornik,Bosnia and Herzegovina,8024,44.3869444,19.1013889,"[44.3869444, 19.1013889]"
1245,Speightstown,Barbados,3634,13.25,-59.65,"[13.2500000, -59.6500000]"
1246,Bathsheba,Barbados,1765,13.2166667,-59.5166667,"[13.2166667, -59.5166667]"
1247,Blackmans,Barbados,623,13.1833333,-59.5333333,"[13.1833333, -59.5333333]"
1248,Bridgetown,Barbados,98511,13.1,-59.6166667,"[13.1000000, -59.6166667]"
1249,Crab Hill,Barbados,727,13.3166667,-59.6333333,"[13.3166667, -59.6333333]"
1250,Holetown,Barbados,1350,13.1833333,-59.65,"[13.1833333, -59.6500000]"
1251,Oistins,Barbados,2285,13.0666667,-59.5333333,"[13.0666667, -59.5333333]"
1252,Greenland,Barbados,623,13.25,-59.5666667,"[13.2500000, -59.5666667]"
1253,Hillaby,Barbados,519,13.2166667,-59.5833333,"[13.2166667, -59.5833333]"
1254,Abhaynagar,Bangladesh,42658,23.0166667,89.4666667,"[23.0166667, 89.4666667]"
1255,Badarganj,Bangladesh,32604,25.6666667,89.05,"[25.6666667, 89.0500000]"
1256,Bajitpur,Bangladesh,34564,24.2166667,90.95,"[24.2166667, 90.9500000]"
1257,Bandarban,Bangladesh,32526,22.2,92.2166667,"[22.2000000, 92.2166667]"
1258,Baniachang,Bangladesh,37812,24.5166667,91.3666667,"[24.5166667, 91.3666667]"
1259,Barisal,Bangladesh,280437,22.7,90.3666667,"[22.7000000, 90.3666667]"
1260,Bera,Bangladesh,39608,24.0833333,89.6166667,"[24.0833333, 89.6166667]"
1261,Bhairab Bazar,Bangladesh,105470,24.0666667,90.9666667,"[24.0666667, 90.9666667]"
1262,Bhandaria,Bangladesh,30222,22.4833333,90.0666667,"[22.4833333, 90.0666667]"
1263,Bheramara,Bangladesh,38164,24.0333333,88.9666667,"[24.0333333, 88.9666667]"
1264,Bhola,Bangladesh,99090,22.6833333,90.65,"[22.6833333, 90.6500000]"
1265,Chandpur,Bangladesh,120183,23.15,90.7166667,"[23.1500000, 90.7166667]"
1266,Char Bhadrasan,Bangladesh,34427,23.3166667,90.2166667,"[23.3166667, 90.2166667]"
1267,Chhagalnaiya,Bangladesh,39339,23.03,91.5069444,"[23.0300000, 91.5069444]"
1268,Chhatak,Bangladesh,39223,25.0333333,91.6666667,"[25.0333333, 91.6666667]"
1269,Chilmari,Bangladesh,49742,25.55,89.7166667,"[25.5500000, 89.7166667]"
1270,Dhaka,Bangladesh,6493177,23.7230556,90.4086111,"[23.7230556, 90.4086111]"
1271,Dhamrai,Bangladesh,38003,23.9122222,90.2683333,"[23.9122222, 90.2683333]"
1272,Dinajpur,Bangladesh,206251,25.6333333,88.6333333,"[25.6333333, 88.6333333]"
1273,Dohar,Bangladesh,45549,23.5883333,90.1469444,"[23.5883333, 90.1469444]"
1274,Faridpur,Bangladesh,112200,23.6,89.8333333,"[23.6000000, 89.8333333]"
1275,Fatikchhari,Bangladesh,39974,22.725,91.7675,"[22.7250000, 91.7675000]"
1276,Feni,Bangladesh,84038,23.0186111,91.41,"[23.0186111, 91.4100000]"
1277,Gafargaon,Bangladesh,34181,24.4333333,90.5666667,"[24.4333333, 90.5666667]"
1278,Gaurnadi,Bangladesh,40524,22.9666667,90.2333333,"[22.9666667, 90.2333333]"
1279,Gazipur,Bangladesh,132249,23.8,90.65,"[23.8000000, 90.6500000]"
1280,Habiganj,Bangladesh,88770,24.3833333,91.4166667,"[24.3833333, 91.4166667]"
1281,Hajiganj,Bangladesh,44349,23.2511111,90.8591667,"[23.2511111, 90.8591667]"
1282,Ishurdi,Bangladesh,82005,24.1333333,89.0833333,"[24.1333333, 89.0833333]"
1283,Jaipur Hat,Bangladesh,73076,25.1,89.0166667,"[25.1000000, 89.0166667]"
1284,Jamalpur,Bangladesh,167914,24.9166667,89.9333333,"[24.9166667, 89.9333333]"
1285,Jhikargachha,Bangladesh,41962,23.1166667,89.1166667,"[23.1166667, 89.1166667]"
1286,Kalia,Bangladesh,40497,23.05,89.6333333,"[23.0500000, 89.6333333]"
